"Country","City","AccentCity","Region","Population","Latitude","Longitude"
"us","alabaster","Alabaster","AL",26738,33.2441667,-86.8163889
"us","albertville","Albertville","AL",18368,34.2675,-86.2088889
"us","alexander city","Alexander City","AL",14993,32.9438889,-85.9538889
"us","anniston","Anniston","AL",23423,33.6597222,-85.8316667
"us","athens","Athens","AL",20470,34.8027778,-86.9716667
"us","auburn","Auburn","AL",49833,32.6097222,-85.4808333
"us","bessemer","Bessemer","AL",28628,33.4016667,-86.9544444
"us","birmingham","Birmingham","AL",231621,33.5205556,-86.8025
"us","cullman","Cullman","AL",14796,34.1747222,-86.8436111
"us","daphne","Daphne","AL",18581,30.6033333,-87.9036111
"us","decatur","Decatur","AL",54621,34.6058333,-86.9833333
"us","dothan","Dothan","AL",61741,31.2230556,-85.3905556
"us","enterprise","Enterprise","AL",22572,31.315,-85.8552778
"us","eufaula","Eufaula","AL",13453,31.8911111,-85.1455556
"us","fairfield","Fairfield","AL",11641,33.4858333,-86.9119444
"us","fairhope","Fairhope","AL",15419,30.5227778,-87.9033333
"us","florence","Florence","AL",35733,34.7997222,-87.6772222
"us","fort payne","Fort Payne","AL",13586,34.4441667,-85.7197222
"us","gadsden","Gadsden","AL",36821,34.0141667,-86.0066667
"us","gardendale","Gardendale","AL",12370,33.66,-86.8127778
"us","hartselle","Hartselle","AL",13089,34.4433333,-86.9352778
"us","helena","Helena","AL",13119,33.2961111,-86.8436111
"us","homewood","Homewood","AL",23815,33.4716667,-86.8008333
"us","hoover","Hoover","AL",66752,33.4052778,-86.8113889
"us","hueytown","Hueytown","AL",15308,33.4511111,-86.9966667
"us","huntsville","Huntsville","AL",167528,34.7302778,-86.5861111
"us","irondale","Irondale","AL",9652,33.5380556,-86.7072222
"us","jacksonville","Jacksonville","AL",8603,33.8136111,-85.7613889
"us","jasper","Jasper","AL",13831,33.8311111,-87.2775
"us","leeds","Leeds","AL",11167,33.5480556,-86.5444444
"us","madison","Madison","AL",37652,34.6991667,-86.7483333
"us","millbrook","Millbrook","AL",14308,32.4797222,-86.3619444
"us","mobile","Mobile","AL",190274,30.6941667,-88.0430556
"us","montgomery","Montgomery","AL",198325,32.3666667,-86.3
"us","mountain brook","Mountain Brook","AL",19509,33.5008333,-86.7522222
"us","muscle shoals","Muscle Shoals","AL",12314,34.7447222,-87.6675
"us","northport","Northport","AL",20574,33.2288889,-87.5772222
"us","opelika","Opelika","AL",23625,32.6452778,-85.3783333
"us","oxford","Oxford","AL",16058,33.6141667,-85.835
"us","ozark","Ozark","AL",14967,31.4588889,-85.6405556
"us","pelham","Pelham","AL",19438,33.2855556,-86.81
"us","pell city","Pell City","AL",10773,33.5861111,-86.2861111
"us","phenix city","Phenix City","AL",28427,32.4708333,-85.0008333
"us","pleasant grove","Pleasant Grove","AL",10440,33.4908333,-86.9702778
"us","prattville","Prattville","AL",28265,32.4638889,-86.4597222
"us","prichard","Prichard","AL",27505,30.7386111,-88.0788889
"us","saraland","Saraland","AL",12660,30.8205556,-88.0705556
"us","scottsboro","Scottsboro","AL",14737,34.6722222,-86.0341667
"us","selma","Selma","AL",18980,32.4072222,-87.0211111
"us","sheffield","Sheffield","AL",9041,34.765,-87.6986111
"us","sylacauga","Sylacauga","AL",12543,33.1730556,-86.2516667
"us","talladega","Talladega","AL",19408,33.4358333,-86.1058333
"us","troy","Troy","AL",13337,31.8086111,-85.97
"us","trussville","Trussville","AL",15903,33.6197222,-86.6088889
"us","tuscaloosa","Tuscaloosa","AL",79816,33.2097222,-87.5691667
"us","tuskegee","Tuskegee","AL",11423,32.4238889,-85.6916667
"us","valley","Valley","AL",8663,32.8186111,-85.1794444
"us","vestavia hills","Vestavia Hills","AL",37988,33.4486111,-86.7877778
"us","anchorage","Anchorage","AK",276263,61.2180556,-149.9002778
"us","barrow","Barrow","AK",4336,71.2905556,-156.7886111
"us","bethel","Bethel","AK",6228,60.7922222,-161.7558333
"us","college","College","AK",11413,64.8569444,-147.8027778
"us","fairbanks","Fairbanks","AK",31351,64.8377778,-147.7163889
"us","homer","Homer","AK",6560,59.6425,-151.5483333
"us","juneau","Juneau","AK",31796,58.3019444,-134.4197222
"us","kenai","Kenai","AK",7610,60.5544444,-151.2583333
"us","ketchikan","Ketchikan","AK",7172,55.3422222,-131.6461111
"us","kodiak","Kodiak","AK",6148,57.79,-152.4072222
"us","nome","Nome","AK",3485,64.5011111,-165.4063889
"us","palmer","Palmer","AK",6585,61.5997222,-149.1127778
"us","sitka","Sitka","AK",8931,57.0530556,-135.33
"us","soldotna","Soldotna","AK",4136,60.4877778,-151.0583333
"us","sterling","Sterling","AK",5173,60.5372222,-150.7647222
"us","wasilla","Wasilla","AK",8521,61.5813889,-149.4394444
"us","apache junction","Apache Junction","AZ",34904,33.415,-111.5488889
"us","avondale","Avondale","AZ",69679,33.4355556,-112.3488889
"us","buckeye","Buckeye","AZ",9039,33.3702778,-112.5830556
"us","bullhead city","Bullhead City","AZ",37989,35.1477778,-114.5675
"us","camp verde","Camp Verde","AZ",10298,34.5636111,-111.8536111
"us","casa grande","Casa Grande","AZ",32138,32.8794444,-111.7566667
"us","casas adobes","Casas Adobes","AZ",77904,32.3233333,-110.9944444
"us","catalina foothills","Catalina Foothills","AZ",71589,32.2977778,-110.9180556
"us","chandler","Chandler","AZ",234297,33.3061111,-111.8405556
"us","chino valley","Chino Valley","AZ",9233,34.7575,-112.4530556
"us","coolidge","Coolidge","AZ",8487,32.9777778,-111.5169444
"us","cottonwood","Cottonwood","AZ",10681,34.7391667,-112.0091667
"us","douglas","Douglas","AZ",16692,31.3444444,-109.5447222
"us","drexel heights","Drexel Heights","AZ",35743,32.1411111,-111.0277778
"us","el mirage","El Mirage","AZ",32308,33.6130556,-112.3238889
"us","eloy","Eloy","AZ",11019,32.7558333,-111.5541667
"us","flagstaff","Flagstaff","AZ",57566,35.1980556,-111.6505556
"us","florence","Florence","AZ",15482,33.0313889,-111.3866667
"us","flowing wells","Flowing Wells","AZ",15339,32.2938889,-111.0091667
"us","fortuna foothills","Fortuna Foothills","AZ",30680,32.6577778,-114.4111111
"us","fountain hills","Fountain Hills","AZ",23116,33.6116667,-111.7166667
"us","gilbert","Gilbert","AZ",170829,33.3527778,-111.7883333
"us","glendale","Glendale","AZ",240112,33.5386111,-112.1852778
"us","goodyear","Goodyear","AZ",42738,33.4352778,-112.3575
"us","green valley","Green Valley","AZ",19310,31.8541667,-110.9930556
"us","kingman","Kingman","AZ",24431,35.1894444,-114.0522222
"us","lake havasu city","Lake Havasu City","AZ",54752,34.4838889,-114.3216667
"us","marana","Marana","AZ",25553,32.4366667,-111.2247222
"us","mesa","Mesa","AZ",449878,33.4222222,-111.8219444
"us","nogales","Nogales","AZ",20707,31.3402778,-110.9336111
"us","oro valley","Oro Valley","AZ",37221,32.3908333,-110.9658333
"us","paradise valley","Paradise Valley","AZ",14400,33.5311111,-111.9419444
"us","payson","Payson","AZ",14737,34.2308333,-111.3244444
"us","peoria","Peoria","AZ",139368,33.5805556,-112.2366667
"us","phoenix","Phoenix","AZ",1428509,33.4483333,-112.0733333
"us","prescott","Prescott","AZ",40136,34.54,-112.4677778
"us","prescott valley","Prescott Valley","AZ",32415,34.61,-112.315
"us","safford","Safford","AZ",8825,32.8338889,-109.7069444
"us","san luis","San Luis","AZ",21793,32.4869444,-114.7813889
"us","scottsdale","Scottsdale","AZ",225796,33.5091667,-111.8983333
"us","sedona","Sedona","AZ",11299,34.8697222,-111.7602778
"us","show low","Show Low","AZ",9564,34.2541667,-110.0291667
"us","sierra vista","Sierra Vista","AZ",41378,31.5544444,-110.3030556
"us","somerton","Somerton","AZ",9466,32.5963889,-114.7088889
"us","sun city","Sun City","AZ",41078,33.5975,-112.2711111
"us","sun city west","Sun City West","AZ",32813,33.6619444,-112.3405556
"us","surprise","Surprise","AZ",65450,33.6305556,-112.3325
"us","tempe","Tempe","AZ",158368,33.4147222,-111.9086111
"us","tucson","Tucson","AZ",518907,32.2216667,-110.9258333
"us","winslow","Winslow","AZ",10003,35.0241667,-110.6966667
"us","yuma","Yuma","AZ",84316,32.7252778,-114.6236111
"us","arkadelphia","Arkadelphia","AR",11062,34.1208333,-93.0536111
"us","batesville","Batesville","AR",9438,35.7697222,-91.6408333
"us","bella vista","Bella Vista","AR",21436,36.4813889,-94.2730556
"us","benton","Benton","AR",24689,34.5644444,-92.5866667
"us","bentonville","Bentonville","AR",31470,36.3727778,-94.2086111
"us","blytheville","Blytheville","AR",16315,35.9272222,-89.9188889
"us","bryant","Bryant","AR",15065,34.5958333,-92.4888889
"us","cabot","Cabot","AR",20555,34.9744444,-92.0163889
"us","camden","Camden","AR",12218,33.5844444,-92.8341667
"us","conway","Conway","AR",51524,35.0886111,-92.4419444
"us","el dorado","El Dorado","AR",20353,33.2075,-92.6661111
"us","fayetteville","Fayetteville","AR",64864,36.0625,-94.1572222
"us","forrest city","Forrest City","AR",14084,35.0080556,-90.7897222
"us","fort smith","Fort Smith","AR",81985,35.3858333,-94.3983333
"us","harrison","Harrison","AR",12468,36.2297222,-93.1075
"us","hope","Hope","AR",10382,33.6669444,-93.5913889
"us","hot springs","Hot Springs","AR",37470,34.5036111,-93.055
"us","jacksonville","Jacksonville","AR",30520,34.8661111,-92.11
"us","jonesboro","Jonesboro","AR",58619,35.8422222,-90.7041667
"us","little rock","Little Rock","AR",184217,34.7463889,-92.2894444
"us","magnolia","Magnolia","AR",10300,33.2669444,-93.2391667
"us","malvern","Malvern","AR",8965,34.3622222,-92.8127778
"us","marion","Marion","AR",9227,35.2144444,-90.1963889
"us","maumelle","Maumelle","AR",13822,34.8666667,-92.4041667
"us","monticello","Monticello","AR",8954,33.6288889,-91.7908333
"us","mountain home","Mountain Home","AR",11798,36.3352778,-92.385
"us","north little rock","North Little Rock","AR",59078,34.7694444,-92.2669444
"us","paragould","Paragould","AR",23450,36.0583333,-90.4972222
"us","pine bluff","Pine Bluff","AR",53217,34.2283333,-92.0030556
"us","rogers","Rogers","AR",45524,36.3319444,-94.1183333
"us","russellville","Russellville","AR",24972,35.2783333,-93.1336111
"us","searcy","Searcy","AR",20154,35.2505556,-91.7361111
"us","sherwood","Sherwood","AR",22495,34.815,-92.2241667
"us","siloam springs","Siloam Springs","AR",14634,36.1880556,-94.5402778
"us","springdale","Springdale","AR",56402,36.1866667,-94.1286111
"us","stuttgart","Stuttgart","AR",9181,34.5002778,-91.5525
"us","texarkana","Texarkana","AR",35315,33.4416667,-94.0375
"us","van buren","Van Buren","AR",20932,35.4366667,-94.3480556
"us","west helena","West Helena","AR",7679,34.5505556,-90.6416667
"us","west memphis","West Memphis","AR",28065,35.1463889,-90.1844444
"us","adelanto","Adelanto","CA",21955,34.5827778,-117.4083333
"us","agoura hills","Agoura Hills","CA",22222,34.1363889,-118.7736111
"us","alameda","Alameda","CA",70443,37.7652778,-122.2405556
"us","alamo","Alamo","CA",17764,37.8502778,-122.0311111
"us","albany","Albany","CA",16144,37.8869444,-122.2966667
"us","alhambra","Alhambra","CA",88386,34.0952778,-118.1261111
"us","aliso viejo","Aliso Viejo","CA",41314,33.6083333,-117.7444444
"us","alondra park","Alondra Park","CA",8028,33.8894444,-118.33
"us","alpine","Alpine","CA",15391,32.835,-116.7655556
"us","altadena","Altadena","CA",43226,34.1897222,-118.1302778
"us","american canyon","American Canyon","CA",15513,38.175,-122.2597222
"us","anaheim","Anaheim","CA",333689,33.8352778,-117.9136111
"us","anderson","Anderson","CA",10684,40.4483333,-122.2966667
"us","antioch","Antioch","CA",106038,38.005,-121.8047222
"us","apple valley","Apple Valley","CA",64271,34.5008333,-117.185
"us","aptos","Aptos","CA",9701,36.9772222,-121.8983333
"us","arcadia","Arcadia","CA",56716,34.1397222,-118.0344444
"us","arcata","Arcata","CA",17199,40.8666667,-124.0816667
"us","arroyo grande","Arroyo Grande","CA",16613,35.1186111,-120.5897222
"us","artesia","Artesia","CA",16992,33.8658333,-118.0822222
"us","arvin","Arvin","CA",14744,35.2091667,-118.8275
"us","ashland","Ashland","CA",23467,37.6947222,-122.1127778
"us","atascadero","Atascadero","CA",27308,35.4894444,-120.6697222
"us","atwater","Atwater","CA",29686,37.3477778,-120.6080556
"us","auburn","Auburn","CA",12523,38.8966667,-121.0758333
"us","avenal","Avenal","CA",16727,36.0041667,-120.1280556
"us","avocado heights","Avocado Heights","CA",15832,34.0361111,-117.9902778
"us","azusa","Azusa","CA",48297,34.1336111,-117.9066667
"us","bakersfield","Bakersfield","CA",291389,35.3733333,-119.0177778
"us","baldwin park","Baldwin Park","CA",80566,34.0852778,-117.96
"us","banning","Banning","CA",30411,33.9255556,-116.8755556
"us","barstow","Barstow","CA",24202,34.8986111,-117.0219444
"us","bay point","Bay Point","CA",24125,38.0291667,-121.9605556
"us","beaumont","Beaumont","CA",18593,33.9294444,-116.9763889
"us","bell","Bell","CA",38335,33.9775,-118.1861111
"us","bell gardens","Bell Gardens","CA",46119,33.9652778,-118.1505556
"us","bellflower","Bellflower","CA",75847,33.8816667,-118.1161111
"us","belmont","Belmont","CA",23998,37.5202778,-122.2747222
"us","benicia","Benicia","CA",26742,38.0494444,-122.1575
"us","berkeley","Berkeley","CA",100158,37.8716667,-122.2716667
"us","beverly hills","Beverly Hills","CA",35355,34.0736111,-118.3994444
"us","bloomington","Bloomington","CA",22003,34.0702778,-117.395
"us","blythe","Blythe","CA",22483,33.6102778,-114.5955556
"us","bonita","Bonita","CA",12520,32.6577778,-117.0291667
"us","bostonia","Bostonia","CA",16168,32.8075,-116.9355556
"us","brawley","Brawley","CA",22185,32.9786111,-115.5294444
"us","brea","Brea","CA",39542,33.9166667,-117.8991667
"us","brentwood","Brentwood","CA",46669,37.9319444,-121.6947222
"us","buena park","Buena Park","CA",79157,33.8675,-117.9972222
"us","burbank","Burbank","CA",104690,34.1808333,-118.3080556
"us","burlingame","Burlingame","CA",26777,37.5841667,-122.365
"us","calabasas","Calabasas","CA",21368,34.1577778,-118.6375
"us","calexico","Calexico","CA",36389,32.6788889,-115.4980556
"us","california city","California City","CA",14780,35.1258333,-117.985
"us","camarillo","Camarillo","CA",62500,34.2163889,-119.0366667
"us","cameron park","Cameron Park","CA",16232,38.6688889,-120.9861111
"us","campbell","Campbell","CA",36529,37.2872222,-121.9488889
"us","canyon lake","Canyon Lake","CA",11582,33.685,-117.2722222
"us","capitola","Capitola","CA",9573,36.9752778,-121.9522222
"us","carlsbad","Carlsbad","CA",91070,33.1580556,-117.3497222
"us","carmichael","Carmichael","CA",50992,38.6172222,-121.3272222
"us","carpinteria","Carpinteria","CA",13786,34.3988889,-119.5175
"us","carson","Carson","CA",95767,33.8313889,-118.2811111
"us","castro valley","Castro Valley","CA",62813,37.6941667,-122.0852778
"us","cathedral city","Cathedral City","CA",52991,33.7797222,-116.4644444
"us","ceres","Ceres","CA",40082,37.595,-120.9566667
"us","cerritos","Cerritos","CA",53305,33.8583333,-118.0638889
"us","charter oak","Charter Oak","CA",9244,34.1030556,-117.845
"us","cherryland","Cherryland","CA",15585,37.6794444,-122.1022222
"us","chico","Chico","CA",70565,39.7286111,-121.8363889
"us","chino","Chino","CA",75494,34.0122222,-117.6880556
"us","chino hills","Chino Hills","CA",78211,33.8936111,-117.7263889
"us","chowchilla","Chowchilla","CA",14898,37.1230556,-120.2591667
"us","chula vista","Chula Vista","CA",213032,32.64,-117.0833333
"us","citrus","Citrus","CA",11308,34.115,-117.8908333
"us","citrus heights","Citrus Heights","CA",89430,38.7072222,-121.28
"us","claremont","Claremont","CA",35368,34.0966667,-117.7188889
"us","clayton","Clayton","CA",11161,37.9411111,-121.9347222
"us","clearlake","Clearlake","CA",14825,38.9583333,-122.6252778
"us","clovis","Clovis","CA",86324,36.8252778,-119.7019444
"us","coachella","Coachella","CA",30755,33.6802778,-116.1730556
"us","coalinga","Coalinga","CA",16331,36.1397222,-120.3591667
"us","colton","Colton","CA",52335,34.0738889,-117.3127778
"us","commerce","Commerce","CA",13684,34.0005556,-118.1588889
"us","compton","Compton","CA",96749,33.8958333,-118.2191667
"us","concord","Concord","CA",125626,37.9780556,-122.03
"us","corcoran","Corcoran","CA",22587,36.0980556,-119.5594444
"us","corona","Corona","CA",152954,33.8752778,-117.5655556
"us","coronado","Coronado","CA",23571,32.6858333,-117.1822222
"us","corte madera","Corte Madera","CA",9154,37.9255556,-122.5263889
"us","costa mesa","Costa Mesa","CA",109250,33.6411111,-117.9177778
"us","country club","Country Club","CA",9670,37.9688889,-121.3397222
"us","covina","Covina","CA",48688,34.09,-117.8894444
"us","crestline","Crestline","CA",11250,34.2419444,-117.2847222
"us","cudahy","Cudahy","CA",25606,33.9605556,-118.1844444
"us","culver city","Culver City","CA",40129,34.0211111,-118.3955556
"us","cupertino","Cupertino","CA",50934,37.3230556,-122.0311111
"us","cypress","Cypress","CA",47371,33.8169444,-118.0363889
"us","daly city","Daly City","CA",98959,37.7058333,-122.4608333
"us","dana point","Dana Point","CA",35870,33.4669444,-117.6972222
"us","danville","Danville","CA",42852,37.8216667,-121.9988889
"us","davis","Davis","CA",65806,38.545,-121.7394444
"us","delano","Delano","CA",44757,35.7688889,-119.2461111
"us","desert hot springs","Desert Hot Springs","CA",18991,33.9611111,-116.5008333
"us","diamond bar","Diamond Bar","CA",58935,34.0286111,-117.8094444
"us","dinuba","Dinuba","CA",18511,36.5433333,-119.3861111
"us","dixon","Dixon","CA",16244,38.4455556,-121.8222222
"us","downey","Downey","CA",111862,33.94,-118.1316667
"us","duarte","Duarte","CA",22521,34.1394444,-117.9763889
"us","dublin","Dublin","CA",38805,37.7022222,-121.9347222
"us","east foothills","East Foothills","CA",8141,37.3811111,-121.8163889
"us","east hemet","East Hemet","CA",13876,33.74,-116.9380556
"us","east la mirada","East La Mirada","CA",9764,33.9244444,-117.9880556
"us","east los angeles","East Los Angeles","CA",125157,34.0238889,-118.1711111
"us","east palo alto","East Palo Alto","CA",32906,37.4688889,-122.14
"us","el cajon","El Cajon","CA",94807,32.7947222,-116.9616667
"us","el centro","El Centro","CA",38323,32.7919444,-115.5622222
"us","el cerrito","El Cerrito","CA",23192,37.9158333,-122.3105556
"us","el monte","El Monte","CA",125372,34.0686111,-118.0266667
"us","el segundo","El Segundo","CA",16710,33.9191667,-118.4155556
"us","el sobrante","El Sobrante","CA",13790,37.9772222,-122.2941667
"us","elk grove","Elk Grove","CA",94497,38.4088889,-121.3705556
"us","encinitas","Encinitas","CA",61585,33.0369444,-117.2911111
"us","escondido","Escondido","CA",137119,33.1191667,-117.0855556
"us","eureka","Eureka","CA",25626,40.8022222,-124.1625
"us","exeter","Exeter","CA",10078,36.2961111,-119.1411111
"us","fair oaks","Fair Oaks","CA",28989,38.6447222,-121.2711111
"us","fairfield","Fairfield","CA",105741,38.2494444,-122.0388889
"us","fairview","Fairview","CA",9822,37.6786111,-122.0447222
"us","fallbrook","Fallbrook","CA",33617,33.3763889,-117.2502778
"us","farmersville","Farmersville","CA",9743,36.2977778,-119.2058333
"us","fillmore","Fillmore","CA",15386,34.3991667,-118.9172222
"us","florin","Florin","CA",29808,38.4961111,-121.4077778
"us","folsom","Folsom","CA",67953,38.6780556,-121.175
"us","fontana","Fontana","CA",169160,34.0922222,-117.4341667
"us","foothill farms","Foothill Farms","CA",17828,38.6763889,-121.3352778
"us","fortuna","Fortuna","CA",11162,40.5983333,-124.1561111
"us","foster city","Foster City","CA",28532,37.5586111,-122.27
"us","fountain valley","Fountain Valley","CA",56133,33.7091667,-117.9527778
"us","fremont","Fremont","CA",202615,37.5483333,-121.9875
"us","fresno","Fresno","CA",465183,36.7477778,-119.7713889
"us","fullerton","Fullerton","CA",135353,33.8702778,-117.9244444
"us","galt","Galt","CA",23997,38.2547222,-121.2988889
"us","garden acres","Garden Acres","CA",10523,37.9638889,-121.2283333
"us","garden grove","Garden Grove","CA",167232,33.7738889,-117.9405556
"us","gardena","Gardena","CA",60915,33.8883333,-118.3080556
"us","gilroy","Gilroy","CA",45309,37.0058333,-121.5672222
"us","glen avon","Glen Avon","CA",16249,34.0116667,-117.4838889
"us","glendale","Glendale","CA",203201,34.1425,-118.2541667
"us","glendora","Glendora","CA",51541,34.1361111,-117.8644444
"us","goleta","Goleta","CA",28351,34.4358333,-119.8266667
"us","gonzales","Gonzales","CA",9054,36.5066667,-121.4433333
"us","grand terrace","Grand Terrace","CA",12518,34.0338889,-117.3127778
"us","grass valley","Grass Valley","CA",12297,39.2191667,-121.06
"us","greenfield","Greenfield","CA",13117,36.3208333,-121.2427778
"us","grover beach","Grover Beach","CA",12974,35.1216667,-120.6202778
"us","hacienda heights","Hacienda Heights","CA",54289,33.9930556,-117.9677778
"us","half moon bay","Half Moon Bay","CA",12423,37.4636111,-122.4275
"us","hanford","Hanford","CA",47648,36.3275,-119.6447222
"us","hawaiian gardens","Hawaiian Gardens","CA",15652,33.8313889,-118.0719444
"us","hawthorne","Hawthorne","CA",87083,33.9163889,-118.3516667
"us","hayward","Hayward","CA",140494,37.6688889,-122.0797222
"us","healdsburg","Healdsburg","CA",11360,38.6105556,-122.8680556
"us","hemet","Hemet","CA",69039,33.7475,-116.9711111
"us","hercules","Hercules","CA",23819,38.0172222,-122.2875
"us","hermosa beach","Hermosa Beach","CA",19825,33.8622222,-118.3986111
"us","hesperia","Hesperia","CA",73640,34.4263889,-117.3
"us","highland","Highland","CA",51312,34.1283333,-117.2077778
"us","hillsborough","Hillsborough","CA",10374,37.5741667,-122.3783333
"us","hollister","Hollister","CA",37485,36.8525,-121.4005556
"us","huntington beach","Huntington Beach","CA",195968,33.6602778,-117.9983333
"us","huntington park","Huntington Park","CA",63831,33.9816667,-118.2241667
"us","imperial","Imperial","CA",10268,32.8475,-115.5686111
"us","imperial beach","Imperial Beach","CA",27091,32.5838889,-117.1122222
"us","indio","Indio","CA",65955,33.7205556,-116.2147222
"us","inglewood","Inglewood","CA",116158,33.9616667,-118.3522222
"us","irvine","Irvine","CA",189297,33.6694444,-117.8222222
"us","isla vista","Isla Vista","CA",17716,34.4133333,-119.86
"us","kerman","Kerman","CA",10647,36.7236111,-120.0588889
"us","king city","King City","CA",11431,36.2127778,-121.125
"us","kingsburg","Kingsburg","CA",11413,36.5138889,-119.5530556
"us","la canada flintridge","La Canada Flintridge","CA",21293,34.1991667,-118.1869444
"us","la habra","La Habra","CA",59654,33.9319444,-117.9452778
"us","la mesa","La Mesa","CA",54087,32.7677778,-117.0222222
"us","la mirada","La Mirada","CA",49963,33.9172222,-118.0111111
"us","la palma","La Palma","CA",16169,33.8463889,-118.0458333
"us","la presa","La Presa","CA",35119,32.7080556,-116.9963889
"us","la puente","La Puente","CA",42605,34.02,-117.9486111
"us","la quinta","La Quinta","CA",37690,33.6633333,-116.3091667
"us","la riviera","La Riviera","CA",10104,38.5669444,-121.3558333
"us","la verne","La Verne","CA",33698,34.1008333,-117.7669444
"us","lafayette","Lafayette","CA",24780,37.8858333,-122.1169444
"us","laguna beach","Laguna Beach","CA",24181,33.5422222,-117.7822222
"us","laguna hills","Laguna Hills","CA",30843,33.6125,-117.7119444
"us","laguna niguel","Laguna Niguel","CA",66291,33.5225,-117.7066667
"us","laguna woods","Laguna Woods","CA",19862,33.6102778,-117.7244444
"us","lake elsinore","Lake Elsinore","CA",40630,33.6680556,-117.3263889
"us","lake forest","Lake Forest","CA",76733,33.6469444,-117.6883333
"us","lakeside","Lakeside","CA",19293,32.8572222,-116.9213889
"us","lakewood","Lakewood","CA",82115,33.8536111,-118.1330556
"us","lamont","Lamont","CA",14438,35.2597222,-118.9133333
"us","lancaster","Lancaster","CA",129548,34.6980556,-118.1358333
"us","larkspur","Larkspur","CA",11667,37.9341667,-122.5341667
"us","lathrop","Lathrop","CA",13250,37.8227778,-121.2755556
"us","lawndale","Lawndale","CA",32841,33.8872222,-118.3516667
"us","lemon grove","Lemon Grove","CA",24802,32.7425,-117.0305556
"us","lemoore","Lemoore","CA",22763,36.3008333,-119.7819444
"us","lennox","Lennox","CA",23387,33.9380556,-118.3516667
"us","lincoln","Lincoln","CA",33242,38.8916667,-121.2919444
"us","linda","Linda","CA",13892,39.1277778,-121.5497222
"us","lindsay","Lindsay","CA",10806,36.2030556,-119.0872222
"us","livermore","Livermore","CA",80347,37.6819444,-121.7669444
"us","livingston","Livingston","CA",12080,37.3869444,-120.7225
"us","lodi","Lodi","CA",62778,38.1302778,-121.2713889
"us","loma linda","Loma Linda","CA",20802,34.0483333,-117.2602778
"us","lomita","Lomita","CA",20751,33.7922222,-118.3141667
"us","lompoc","Lompoc","CA",40957,34.6391667,-120.4569444
"us","long beach","Long Beach","CA",482618,33.7669444,-118.1883333
"us","los alamitos","Los Alamitos","CA",11718,33.8030556,-118.0716667
"us","los altos","Los Altos","CA",26871,37.3852778,-122.1130556
"us","los altos hills","Los Altos Hills","CA",8207,37.3797222,-122.1363889
"us","los angeles","Los Angeles","CA",3877129,34.0522222,-118.2427778
"us","los banos","Los Banos","CA",33317,37.0583333,-120.8488889
"us","los gatos","Los Gatos","CA",27551,37.2266667,-121.9736111
"us","lynwood","Lynwood","CA",72397,33.9302778,-118.2105556
"us","madera","Madera","CA",51451,36.9613889,-120.0597222
"us","magalia","Magalia","CA",11577,39.8122222,-121.5772222
"us","malibu","Malibu","CA",13769,34.005,-118.8091667
"us","manhattan beach","Manhattan Beach","CA",37174,33.8847222,-118.41
"us","manteca","Manteca","CA",65820,37.7975,-121.215
"us","marina","Marina","CA",16957,36.6844444,-121.8011111
"us","martinez","Martinez","CA",36702,38.0194444,-122.1330556
"us","marysville","Marysville","CA",12530,39.1458333,-121.5902778
"us","maywood","Maywood","CA",28965,33.9866667,-118.1844444
"us","mendota","Mendota","CA",8872,36.7536111,-120.3805556
"us","menlo park","Menlo Park","CA",29071,37.4538889,-122.1811111
"us","merced","Merced","CA",72619,37.3022222,-120.4819444
"us","mill valley","Mill Valley","CA",13219,37.9061111,-122.5438889
"us","millbrae","Millbrae","CA",19557,37.5986111,-122.3861111
"us","milpitas","Milpitas","CA",62636,37.4283333,-121.9055556
"us","mira loma","Mira Loma","CA",18827,33.9925,-117.5155556
"us","mission viejo","Mission Viejo","CA",96287,33.6,-117.6711111
"us","modesto","Modesto","CA",216008,37.6391667,-120.9958333
"us","monrovia","Monrovia","CA",38439,34.1480556,-117.9980556
"us","montclair","Montclair","CA",35729,34.0775,-117.6888889
"us","montebello","Montebello","CA",64327,34.0094444,-118.1044444
"us","monterey","Monterey","CA",30307,36.6002778,-121.8936111
"us","monterey park","Monterey Park","CA",63193,34.0625,-118.1219444
"us","moorpark","Moorpark","CA",37010,34.2855556,-118.8811111
"us","moraga","Moraga","CA",16826,37.835,-122.1286111
"us","moreno valley","Moreno Valley","CA",168629,33.9375,-117.2297222
"us","morgan hill","Morgan Hill","CA",34719,37.1305556,-121.6533333
"us","morro bay","Morro Bay","CA",10242,35.3658333,-120.8488889
"us","mountain view","Mountain View","CA",68268,37.3861111,-122.0827778
"us","murrieta","Murrieta","CA",88714,33.5538889,-117.2130556
"us","napa","Napa","CA",77015,38.2972222,-122.2844444
"us","national city","National City","CA",62490,32.6780556,-117.0983333
"us","newark","Newark","CA",42922,37.5297222,-122.0391667
"us","newport beach","Newport Beach","CA",78702,33.6188889,-117.9280556
"us","norco","Norco","CA",27346,33.9311111,-117.5477778
"us","north auburn","North Auburn","CA",12841,38.9313889,-121.0808333
"us","north highlands","North Highlands","CA",45878,38.6858333,-121.3711111
"us","norwalk","Norwalk","CA",109111,33.9022222,-118.0808333
"us","novato","Novato","CA",48817,38.1075,-122.5686111
"us","oakdale","Oakdale","CA",18668,37.7666667,-120.8461111
"us","oakland","Oakland","CA",394579,37.8044444,-122.2697222
"us","oakley","Oakley","CA",26774,37.9975,-121.7113889
"us","oceanside","Oceanside","CA",170340,33.1958333,-117.3786111
"us","oildale","Oildale","CA",28962,35.4197222,-119.0186111
"us","olivehurst","Olivehurst","CA",11919,39.0955556,-121.5511111
"us","ontario","Ontario","CA",172808,34.0633333,-117.65
"us","orange","Orange","CA",133874,33.7877778,-117.8522222
"us","orange cove","Orange Cove","CA",9768,36.6244444,-119.3127778
"us","orangevale","Orangevale","CA",27318,38.6786111,-121.2247222
"us","orinda","Orinda","CA",18251,37.8772222,-122.1786111
"us","oroville","Oroville","CA",13197,39.5138889,-121.5552778
"us","oxnard","Oxnard","CA",187235,34.1975,-119.1761111
"us","pacific grove","Pacific Grove","CA",15196,36.6177778,-121.9155556
"us","pacifica","Pacifica","CA",36472,37.6138889,-122.4858333
"us","palm desert","Palm Desert","CA",48531,33.7222222,-116.3736111
"us","palm springs","Palm Springs","CA",46680,33.8302778,-116.5444444
"us","palmdale","Palmdale","CA",135294,34.5794444,-118.1155556
"us","palo alto","Palo Alto","CA",56508,37.4419444,-122.1419444
"us","palos verdes estates","Palos Verdes Estates","CA",14036,33.8005556,-118.3891667
"us","paradise","Paradise","CA",26949,39.7597222,-121.6208333
"us","paramount","Paramount","CA",57275,33.8894444,-118.1588889
"us","parlier","Parlier","CA",12811,36.6116667,-119.5261111
"us","pasadena","Pasadena","CA",144618,34.1477778,-118.1436111
"us","patterson","Patterson","CA",15957,37.4716667,-121.1286111
"us","pedley","Pedley","CA",12697,33.9752778,-117.475
"us","perris","Perris","CA",46318,33.7825,-117.2277778
"us","petaluma","Petaluma","CA",55352,38.2325,-122.6355556
"us","pico rivera","Pico Rivera","CA",66332,33.9830556,-118.0958333
"us","piedmont","Piedmont","CA",10619,37.8244444,-122.2305556
"us","pinole","Pinole","CA",19540,38.0044444,-122.2977778
"us","pismo beach","Pismo Beach","CA",8477,35.1427778,-120.6402778
"us","pittsburg","Pittsburg","CA",62838,38.0280556,-121.8836111
"us","placentia","Placentia","CA",49160,33.8722222,-117.8694444
"us","placerville","Placerville","CA",10274,38.7297222,-120.7975
"us","pleasant hill","Pleasant Hill","CA",34477,37.9480556,-122.0597222
"us","pleasanton","Pleasanton","CA",66532,37.6625,-121.8736111
"us","pomona","Pomona","CA",156183,34.0552778,-117.7513889
"us","port hueneme","Port Hueneme","CA",21417,34.1477778,-119.1941667
"us","porterville","Porterville","CA",44674,36.0652778,-119.0158333
"us","poway","Poway","CA",49635,32.9627778,-117.035
"us","quartz hill","Quartz Hill","CA",10167,34.6452778,-118.2172222
"us","ramona","Ramona","CA",17373,33.0416667,-116.8672222
"us","rancho cordova","Rancho Cordova","CA",59185,38.5891667,-121.3016667
"us","rancho cucamonga","Rancho Cucamonga","CA",168557,34.1063889,-117.5922222
"us","rancho mirage","Rancho Mirage","CA",16742,33.7397222,-116.4119444
"us","rancho palos verdes","Rancho Palos Verdes","CA",42693,33.7444444,-118.3861111
"us","rancho san diego","Rancho San Diego","CA",28267,32.7472222,-116.9344444
"us","rancho santa margarita","Rancho Santa Margarita","CA",51344,33.6408333,-117.6022222
"us","red bluff","Red Bluff","CA",14036,40.1786111,-122.2347222
"us","redding","Redding","CA",91685,40.5866667,-122.3905556
"us","redlands","Redlands","CA",70287,34.0555556,-117.1816667
"us","redondo beach","Redondo Beach","CA",67791,33.8491667,-118.3875
"us","redwood city","Redwood City","CA",71969,37.4852778,-122.2352778
"us","reedley","Reedley","CA",22156,36.5963889,-119.4494444
"us","rialto","Rialto","CA",101523,34.1063889,-117.3694444
"us","richmond","Richmond","CA",103041,37.9358333,-122.3466667
"us","ridgecrest","Ridgecrest","CA",26110,35.6225,-117.67
"us","rio linda","Rio Linda","CA",11128,38.6911111,-121.4475
"us","ripon","Ripon","CA",13591,37.7416667,-121.1233333
"us","riverbank","Riverbank","CA",18775,37.7361111,-120.9344444
"us","riverside","Riverside","CA",297554,33.9533333,-117.3952778
"us","rocklin","Rocklin","CA",55007,38.7908333,-121.2347222
"us","rohnert park","Rohnert Park","CA",41314,38.3397222,-122.7
"us","roseland","Roseland","CA",5986,38.4222222,-122.7269444
"us","rosemead","Rosemead","CA",56066,34.0805556,-118.0719444
"us","rosemont","Rosemont","CA",23273,38.5519444,-121.3636111
"us","roseville","Roseville","CA",112647,38.7522222,-121.2869444
"us","rossmoor","Rossmoor","CA",10651,33.7855556,-118.0841667
"us","rowland heights","Rowland Heights","CA",52377,33.9761111,-117.9044444
"us","rubidoux","Rubidoux","CA",32235,33.9961111,-117.4047222
"us","sacramento","Sacramento","CA",467898,38.5816667,-121.4933333
"us","salinas","Salinas","CA",148691,36.6777778,-121.6544444
"us","san anselmo","San Anselmo","CA",11936,37.9747222,-122.5605556
"us","san bernardino","San Bernardino","CA",202381,34.1083333,-117.2888889
"us","san bruno","San Bruno","CA",39662,37.6305556,-122.41
"us","san carlos","San Carlos","CA",26630,37.5072222,-122.2594444
"us","san clemente","San Clemente","CA",62272,33.4269444,-117.6111111
"us","san diego","San Diego","CA",1287050,32.7152778,-117.1563889
"us","san dimas","San Dimas","CA",36422,34.1066667,-117.8058333
"us","san fernando","San Fernando","CA",24524,34.2819444,-118.4380556
"us","san francisco","San Francisco","CA",732072,37.775,-122.4183333
"us","san gabriel","San Gabriel","CA",41535,34.0961111,-118.105
"us","san jacinto","San Jacinto","CA",29376,33.7838889,-116.9577778
"us","san jose","San Jose","CA",897460,37.3394444,-121.8938889
"us","san juan capistrano","San Juan Capistrano","CA",35301,33.5016667,-117.6616667
"us","san leandro","San Leandro","CA",79904,37.725,-122.155
"us","san lorenzo","San Lorenzo","CA",23201,37.6811111,-122.1233333
"us","san luis obispo","San Luis Obispo","CA",44132,35.2827778,-120.6586111
"us","san marcos","San Marcos","CA",69697,33.1433333,-117.1652778
"us","san marino","San Marino","CA",13314,34.1213889,-118.1055556
"us","san mateo","San Mateo","CA",89982,37.5630556,-122.3244444
"us","san pablo","San Pablo","CA",31351,37.9622222,-122.3444444
"us","san rafael","San Rafael","CA",55270,37.9736111,-122.53
"us","san ramon","San Ramon","CA",45993,37.78,-121.9769444
"us","sanger","Sanger","CA",20772,36.7080556,-119.555
"us","santa ana","Santa Ana","CA",343054,33.7455556,-117.8669444
"us","santa barbara","Santa Barbara","CA",86681,34.4208333,-119.6972222
"us","santa clara","Santa Clara","CA",102250,37.3541667,-121.9541667
"us","santa clarita","Santa Clarita","CA",168927,34.3916667,-118.5416667
"us","santa cruz","Santa Cruz","CA",54617,36.9741667,-122.0297222
"us","santa fe springs","Santa Fe Springs","CA",16330,33.9472222,-118.0844444
"us","santa maria","Santa Maria","CA",85480,34.9530556,-120.4347222
"us","santa monica","Santa Monica","CA",88338,34.0194444,-118.4902778
"us","santa paula","Santa Paula","CA",29015,34.3541667,-119.0583333
"us","santa rosa","Santa Rosa","CA",155118,38.4405556,-122.7133333
"us","santee","Santee","CA",52600,32.8383333,-116.9730556
"us","saratoga","Saratoga","CA",28956,37.2638889,-122.0219444
"us","scotts valley","Scotts Valley","CA",11120,37.0511111,-122.0136111
"us","seal beach","Seal Beach","CA",24404,33.7413889,-118.1038889
"us","seaside","Seaside","CA",35762,36.6111111,-121.8505556
"us","selma","Selma","CA",22426,36.5708333,-119.6111111
"us","shafter","Shafter","CA",14396,35.5005556,-119.2708333
"us","shasta lake","Shasta Lake","CA",10611,40.6805556,-122.3697222
"us","sierra madre","Sierra Madre","CA",11090,34.1616667,-118.0519444
"us","signal hill","Signal Hill","CA",10576,33.8044444,-118.1669444
"us","simi valley","Simi Valley","CA",119417,34.2694444,-118.7805556
"us","solana beach","Solana Beach","CA",12909,32.9911111,-117.2702778
"us","soledad","Soledad","CA",28140,36.4247222,-121.3252778
"us","sonoma","Sonoma","CA",9773,38.2919444,-122.4569444
"us","soquel","Soquel","CA",5096,36.9880556,-121.9555556
"us","south el monte","South El Monte","CA",22049,34.0519444,-118.0458333
"us","south gate","South Gate","CA",99922,33.9547222,-118.2111111
"us","south lake tahoe","South Lake Tahoe","CA",23925,38.9333333,-119.9833333
"us","south pasadena","South Pasadena","CA",24994,34.1161111,-118.1494444
"us","south san francisco","South San Francisco","CA",58555,37.6547222,-122.4066667
"us","south san jose hills","South San Jose Hills","CA",21779,34.0127778,-117.9038889
"us","south whittier","South Whittier","CA",58952,33.9608333,-118.0408333
"us","south yuba city","South Yuba City","CA",15217,39.1166667,-121.6380556
"us","spring valley","Spring Valley","CA",26180,32.7447222,-116.9980556
"us","stanford","Stanford","CA",12574,37.4241667,-122.165
"us","stanton","Stanton","CA",37914,33.8025,-117.9922222
"us","stockton","Stockton","CA",289580,37.9577778,-121.2897222
"us","suisun city","Suisun City","CA",27219,38.2383333,-122.0391667
"us","sun city","Sun City","CA",19579,33.7091667,-117.1963889
"us","sunnyvale","Sunnyvale","CA",126499,37.3688889,-122.0352778
"us","susanville","Susanville","CA",17641,40.4163889,-120.6519444
"us","taft","Taft","CA",9295,35.1425,-119.4555556
"us","tehachapi","Tehachapi","CA",12009,35.1322222,-118.4480556
"us","temecula","Temecula","CA",85145,33.4936111,-117.1475
"us","temple city","Temple City","CA",37973,34.1072222,-118.0569444
"us","thousand oaks","Thousand Oaks","CA",127942,34.1705556,-118.8366667
"us","tiburon","Tiburon","CA",8632,37.8736111,-122.4555556
"us","torrance","Torrance","CA",144963,33.8358333,-118.3397222
"us","tracy","Tracy","CA",83216,37.7397222,-121.4241667
"us","truckee","Truckee","CA",15771,39.3280556,-120.1822222
"us","tulare","Tulare","CA",50103,36.2077778,-119.3463889
"us","turlock","Turlock","CA",67940,37.4947222,-120.8455556
"us","tustin","Tustin","CA",68728,33.7458333,-117.8252778
"us","tustin foothills","Tustin Foothills","CA",24257,33.7644444,-117.7930556
"us","twentynine palms","Twentynine Palms","CA",22642,34.1355556,-116.0533333
"us","ukiah","Ukiah","CA",15825,39.1502778,-123.2066667
"us","union city","Union City","CA",69530,37.5958333,-122.0180556
"us","upland","Upland","CA",74230,34.0975,-117.6475
"us","vacaville","Vacaville","CA",96469,38.3566667,-121.9866667
"us","valinda","Valinda","CA",23721,34.0452778,-117.9427778
"us","vallejo","Vallejo","CA",120446,38.1041667,-122.2555556
"us","victorville","Victorville","CA",83496,34.5361111,-117.2902778
"us","visalia","Visalia","CA",107431,36.3302778,-119.2911111
"us","vista","Vista","CA",92707,33.2,-117.2416667
"us","walnut","Walnut","CA",31720,34.0202778,-117.8644444
"us","walnut creek","Walnut Creek","CA",65179,37.9063889,-122.0638889
"us","walnut park","Walnut Park","CA",17168,33.9680556,-118.2241667
"us","wasco","Wasco","CA",22813,35.5941667,-119.34
"us","watsonville","Watsonville","CA",45724,36.9102778,-121.7558333
"us","west athens","West Athens","CA",9355,33.9233333,-118.3025
"us","west carson","West Carson","CA",21947,33.8216667,-118.2916667
"us","west covina","West Covina","CA",109756,34.0686111,-117.9380556
"us","west hollywood","West Hollywood","CA",37031,34.09,-118.3608333
"us","west puente valley","West Puente Valley","CA",24134,34.0516667,-117.9675
"us","west sacramento","West Sacramento","CA",41446,38.5805556,-121.5291667
"us","westlake village","Westlake Village","CA",8663,34.1458333,-118.8047222
"us","westminster","Westminster","CA",89868,33.7591667,-118.0058333
"us","westmont","Westmont","CA",32377,33.9413889,-118.3013889
"us","whittier","Whittier","CA",85778,33.9791667,-118.0319444
"us","wildomar","Wildomar","CA",16442,33.5988889,-117.2791667
"us","willowbrook","Willowbrook","CA",35321,33.9169444,-118.2541667
"us","windsor","Windsor","CA",25262,38.5472222,-122.8152778
"us","woodland","Woodland","CA",51731,38.6786111,-121.7722222
"us","yorba linda","Yorba Linda","CA",64778,33.8886111,-117.8122222
"us","yuba city","Yuba City","CA",52432,39.1405556,-121.6158333
"us","yucaipa","Yucaipa","CA",50392,34.0336111,-117.0422222
"us","yucca valley","Yucca Valley","CA",19344,34.1141667,-116.4313889
"us","alamosa","Alamosa","CO",8771,37.4694444,-105.8694444
"us","applewood","Applewood","CO",7533,39.7472222,-105.1622222
"us","arvada","Arvada","CO",101732,39.8027778,-105.0869444
"us","aurora","Aurora","CO",299780,39.7294444,-104.8313889
"us","black forest","Black Forest","CO",16096,39.0130556,-104.7002778
"us","boulder","Boulder","CO",91521,40.015,-105.27
"us","brighton","Brighton","CO",29328,39.9852778,-104.82
"us","broomfield","Broomfield","CO",44692,39.9205556,-105.0861111
"us","canon city","Canon City","CO",15972,38.4,-105.2166667
"us","castle rock","Castle Rock","CO",38814,39.3722222,-104.8555556
"us","castlewood","Castlewood","CO",25271,39.5847222,-104.9005556
"us","centennial","Centennial","CO",96930,39.5791667,-104.8763889
"us","cimarron hills","Cimarron Hills","CO",16981,38.8586111,-104.6983333
"us","clifton","Clifton","CO",19435,39.0919444,-108.4483333
"us","colorado springs","Colorado Springs","CO",373072,38.8338889,-104.8208333
"us","columbine","Columbine","CO",23353,39.5877778,-105.0688889
"us","commerce city","Commerce City","CO",30707,39.8083333,-104.9333333
"us","cortez","Cortez","CO",8285,37.3488889,-108.5852778
"us","craig","Craig","CO",9391,40.5152778,-107.5458333
"us","denver","Denver","CO",555981,39.7391667,-104.9841667
"us","durango","Durango","CO",15022,37.2752778,-107.8794444
"us","englewood","Englewood","CO",32860,39.6477778,-104.9872222
"us","erie","Erie","CO",10403,40.0502778,-105.0494444
"us","evans","Evans","CO",19623,40.3763889,-104.6916667
"us","federal heights","Federal Heights","CO",11551,39.8513889,-104.9980556
"us","fort carson","Fort Carson","CO",10645,38.7375,-104.7883333
"us","fort collins","Fort Collins","CO",129252,40.5852778,-105.0838889
"us","fort morgan","Fort Morgan","CO",10969,40.2502778,-103.7994444
"us","fountain","Fountain","CO",15925,38.6822222,-104.7002778
"us","glenwood springs","Glenwood Springs","CO",8540,39.5505556,-107.3241667
"us","golden","Golden","CO",17887,39.7555556,-105.2205556
"us","grand junction","Grand Junction","CO",45938,39.0638889,-108.55
"us","greeley","Greeley","CO",86875,40.4233333,-104.7086111
"us","greenwood village","Greenwood Village","CO",13338,39.6172222,-104.9502778
"us","highlands ranch","Highlands Ranch","CO",101565,39.5538889,-104.9688889
"us","ken caryl","Ken Caryl","CO",33365,39.5758333,-105.1116667
"us","lafayette","Lafayette","CO",23716,39.9936111,-105.0891667
"us","lakewood","Lakewood","CO",140772,39.7047222,-105.0808333
"us","lamar","Lamar","CO",8514,38.0872222,-102.6202778
"us","littleton","Littleton","CO",40947,39.6133333,-105.0161111
"us","longmont","Longmont","CO",83291,40.1672222,-105.1013889
"us","louisville","Louisville","CO",17965,39.9777778,-105.1313889
"us","loveland","Loveland","CO",59618,40.3977778,-105.0744444
"us","montrose","Montrose","CO",15138,38.4783333,-107.8755556
"us","northglenn","Northglenn","CO",32656,39.8855556,-104.9866667
"us","parker","Parker","CO",41059,39.5186111,-104.7608333
"us","pueblo","Pueblo","CO",104293,38.2544444,-104.6086111
"us","redlands","Redlands","CO",7877,39.0788889,-108.635
"us","sherrelwood","Sherrelwood","CO",17556,39.8377778,-105.0008333
"us","southglenn","Southglenn","CO",42268,39.5872222,-104.9522222
"us","steamboat springs","Steamboat Springs","CO",9349,40.485,-106.8311111
"us","sterling","Sterling","CO",12682,40.6255556,-103.2072222
"us","superior","Superior","CO",11186,39.9527778,-105.1680556
"us","thornton","Thornton","CO",104658,39.8680556,-104.9713889
"us","trinidad","Trinidad","CO",9156,37.1694444,-104.5
"us","welby","Welby","CO",14031,39.8366667,-104.9586111
"us","westminster","Westminster","CO",104037,39.8366667,-105.0366667
"us","wheat ridge","Wheat Ridge","CO",30978,39.7661111,-105.0766667
"us","windsor","Windsor","CO",14904,40.4775,-104.9008333
"us","ansonia","Ansonia","CT",18959,41.3461111,-73.0794444
"us","branford","Branford","CT",29438,41.2794444,-72.8155556
"us","bridgeport","Bridgeport","CT",139090,41.1669444,-73.2052778
"us","bristol","Bristol","CT",61033,41.6716667,-72.9497222
"us","cheshire","Cheshire","CT",29443,41.4988889,-72.9011111
"us","clinton","Clinton","CT",14064,41.2786111,-72.5280556
"us","colchester","Colchester","CT",15502,41.5755556,-72.3325
"us","coventry","Coventry","CT",12428,41.77,-72.3055556
"us","cromwell","Cromwell","CT",13750,41.595,-72.6458333
"us","danbury","Danbury","CT",78565,41.3947222,-73.4544444
"us","darien","Darien","CT",20753,41.0786111,-73.4697222
"us","derby","Derby","CT",12717,41.3205556,-73.0894444
"us","east haddam","East Haddam","CT",9042,41.4530556,-72.4616667
"us","east hampton","East Hampton","CT",9540,41.5758333,-72.5030556
"us","east hartford","East Hartford","CT",50160,41.7822222,-72.6125
"us","east haven","East Haven","CT",29006,41.2761111,-72.8688889
"us","ellington","Ellington","CT",14693,41.9038889,-72.4702778
"us","fairfield","Fairfield","CT",59052,41.1411111,-73.2641667
"us","greenwich","Greenwich","CT",63652,41.0263889,-73.6288889
"us","groton","Groton","CT",10363,41.35,-72.0788889
"us","guilford","Guilford","CT",22498,41.2888889,-72.6822222
"us","hamden","Hamden","CT",59847,41.3958333,-72.8972222
"us","hartford","Hartford","CT",124019,41.7636111,-72.6855556
"us","hebron","Hebron","CT",9298,41.6577778,-72.3663889
"us","litchfield","Litchfield","CT",409,41.7472222,-73.1891667
"us","madison","Madison","CT",19100,41.2794444,-72.5988889
"us","meriden","Meriden","CT",59395,41.5380556,-72.8075
"us","middletown","Middletown","CT",50362,41.5622222,-72.6511111
"us","milford","Milford","CT",51195,41.2222222,-73.0569444
"us","naugatuck","Naugatuck","CT",32161,41.4858333,-73.0511111
"us","new britain","New Britain","CT",71455,41.6611111,-72.78
"us","new haven","New Haven","CT",124922,41.3080556,-72.9286111
"us","new london","New London","CT",26294,41.3555556,-72.1
"us","new milford","New Milford","CT",42421,41.5769444,-73.4088889
"us","newington","Newington","CT",29945,41.6977778,-72.7241667
"us","north branford","North Branford","CT",14454,41.3275,-72.7677778
"us","north haven","North Haven","CT",23960,41.3908333,-72.86
"us","norwalk","Norwalk","CT",84530,41.1175,-73.4083333
"us","norwich","Norwich","CT",36441,41.5241667,-72.0763889
"us","old saybrook","Old Saybrook","CT",10627,41.2916667,-72.3766667
"us","orange","Orange","CT",13860,41.2783333,-73.0261111
"us","oxford","Oxford","CT",11345,41.4338889,-73.1172222
"us","plainfield","Plainfield","CT",15498,41.6763889,-71.9155556
"us","plymouth","Plymouth","CT",12284,41.6719444,-73.0533333
"us","portland","Portland","CT",14510,41.5727778,-72.6411111
"us","prospect","Prospect","CT",9476,41.5022222,-72.9791667
"us","putnam","Putnam","CT",9111,41.915,-71.9094444
"us","seymour","Seymour","CT",16562,41.3966667,-73.0763889
"us","shelton","Shelton","CT",39695,41.3163889,-73.0936111
"us","somers","Somers","CT",11291,41.9852778,-72.4466667
"us","southbury","Southbury","CT",19836,41.4813889,-73.2136111
"us","stafford","Stafford","CT",12029,41.9847222,-72.2894444
"us","stamford","Stamford","CT",121230,41.0533333,-73.5391667
"us","stonington","Stonington","CT",251,41.3358333,-71.9063889
"us","storrs","Storrs","CT",10684,41.8083333,-72.25
"us","stratford","Stratford","CT",51268,41.1844444,-73.1336111
"us","thompson","Thompson","CT",9358,41.9586111,-71.8630556
"us","tolland","Tolland","CT",14891,41.8713889,-72.3691667
"us","torrington","Torrington","CT",36000,41.8005556,-73.1216667
"us","trumbull","Trumbull","CT",36065,41.2427778,-73.2011111
"us","vernon","Vernon","CT",30064,41.8186111,-72.48
"us","waterbury","Waterbury","CT",108507,41.5580556,-73.0519444
"us","watertown","Watertown","CT",22391,41.6061111,-73.1186111
"us","west hartford","West Hartford","CT",66610,41.7619444,-72.7425
"us","west haven","West Haven","CT",53401,41.2705556,-72.9475
"us","westport","Westport","CT",26938,41.1413889,-73.3583333
"us","wethersfield","Wethersfield","CT",27104,41.7141667,-72.6530556
"us","willimantic","Willimantic","CT",16686,41.7105556,-72.2086111
"us","windham","Windham","CT",23072,41.6997222,-72.1575
"us","windsor locks","Windsor Locks","CT",12138,41.9291667,-72.6277778
"us","wolcott","Wolcott","CT",16639,41.6022222,-72.9872222
"us","woodbridge","Woodbridge","CT",9355,41.3525,-73.0088889
"us","woodbury","Woodbury","CT",9755,41.5444444,-73.2094444
"us","brookside","Brookside","DE",14519,39.6669444,-75.7272222
"us","claymont","Claymont","DE",8925,39.8005556,-75.46
"us","dover","Dover","DE",33286,39.1580556,-75.5247222
"us","edgemoor","Edgemoor","DE",6036,39.75,-75.5
"us","elsmere","Elsmere","DE",5713,39.7391667,-75.5983333
"us","georgetown","Georgetown","DE",4932,38.69,-75.3858333
"us","middletown","Middletown","DE",6781,39.4494444,-75.7166667
"us","milford","Milford","DE",7129,38.9125,-75.4283333
"us","new castle","New Castle","DE",4718,39.6619444,-75.5666667
"us","newark","Newark","DE",30238,39.6836111,-75.75
"us","pike creek","Pike Creek","DE",25752,39.7308333,-75.7044444
"us","seaford","Seaford","DE",7121,38.6411111,-75.6113889
"us","smyrna","Smyrna","DE",6691,39.2997222,-75.605
"us","wilmington","Wilmington","DE",71356,39.7458333,-75.5469444
"us","wilmington manor","Wilmington Manor","DE",8091,39.6866667,-75.5847222
"us","washington","Washington","DC",552433,38.895,-77.0366667
"us","altamonte springs","Altamonte Springs","FL",40819,28.6608333,-81.3658333
"us","apopka","Apopka","FL",33216,28.6802778,-81.5097222
"us","atlantic beach","Atlantic Beach","FL",13644,30.3341667,-81.3988889
"us","auburndale","Auburndale","FL",12405,28.065,-81.7888889
"us","aventura","Aventura","FL",27892,25.9561111,-80.1394444
"us","avon park","Avon Park","FL",8777,27.5955556,-81.5063889
"us","azalea park","Azalea Park","FL",12347,28.5408333,-81.3008333
"us","bartow","Bartow","FL",15718,27.8961111,-81.8433333
"us","bayonet point","Bayonet Point","FL",24618,28.3263889,-82.6836111
"us","bayshore gardens","Bayshore Gardens","FL",17622,27.425,-82.5905556
"us","belle glade","Belle Glade","FL",15269,26.6841667,-80.6677778
"us","bellview","Bellview","FL",22282,30.4613889,-87.315
"us","bloomingdale","Bloomingdale","FL",23618,27.8933333,-82.2405556
"us","boca raton","Boca Raton","FL",80689,26.3583333,-80.0833333
"us","bonita springs","Bonita Springs","FL",41840,26.3394444,-81.7788889
"us","boynton beach","Boynton Beach","FL",66442,26.525,-80.0666667
"us","bradenton","Bradenton","FL",54608,27.4986111,-82.575
"us","brandon","Brandon","FL",90165,27.9375,-82.2861111
"us","brent","Brent","FL",22735,30.4686111,-87.2361111
"us","callaway","Callaway","FL",14913,30.1527778,-85.57
"us","cape canaveral","Cape Canaveral","FL",10101,28.4055556,-80.605
"us","cape coral","Cape Coral","FL",130807,26.5625,-81.9497222
"us","carol city","Carol City","FL",63031,25.9402778,-80.2458333
"us","casselberry","Casselberry","FL",23821,28.6775,-81.3280556
"us","century village","Century Village","FL",7839,26.7136111,-80.1291667
"us","citrus park","Citrus Park","FL",22364,28.0780556,-82.57
"us","clearwater","Clearwater","FL",108064,27.9655556,-82.8002778
"us","clermont","Clermont","FL",11473,28.5491667,-81.7730556
"us","cocoa","Cocoa","FL",16433,28.3858333,-80.7422222
"us","cocoa beach","Cocoa Beach","FL",12336,28.3197222,-80.6077778
"us","coconut creek","Coconut Creek","FL",50326,26.2513889,-80.1791667
"us","conway","Conway","FL",15129,28.5025,-81.3308333
"us","cooper city","Cooper City","FL",29172,26.0569444,-80.2719444
"us","coral gables","Coral Gables","FL",42485,25.7211111,-80.2686111
"us","coral springs","Coral Springs","FL",131674,26.2708333,-80.2708333
"us","coral terrace","Coral Terrace","FL",25120,25.7455556,-80.3047222
"us","country club","Country Club","FL",53746,25.9477778,-80.3172222
"us","crestview","Crestview","FL",16702,30.7619444,-86.5705556
"us","cutler","Cutler","FL",18117,25.6147222,-80.3108333
"us","cutler ridge","Cutler Ridge","FL",26831,25.5802778,-80.3469444
"us","cypress gardens","Cypress Gardens","FL",8755,27.9936111,-81.6902778
"us","cypress lake","Cypress Lake","FL",12994,26.5377778,-81.8994444
"us","dania beach","Dania Beach","FL",28826,26.0519444,-80.1441667
"us","davie","Davie","FL",82605,26.0625,-80.2333333
"us","daytona beach","Daytona Beach","FL",64661,29.2105556,-81.0230556
"us","de land","De Land","FL",22721,29.0280556,-81.3033333
"us","deerfield beach","Deerfield Beach","FL",66239,26.3180556,-80.1
"us","delray beach","Delray Beach","FL",65511,26.4611111,-80.0730556
"us","deltona","Deltona","FL",82008,28.9002778,-81.2638889
"us","destin","Destin","FL",12115,30.3933333,-86.4958333
"us","doctor phillips","Doctor Phillips","FL",10478,28.4491667,-81.4925
"us","dunedin","Dunedin","FL",37020,28.0194444,-82.7719444
"us","east lake","East Lake","FL",43892,28.1105556,-82.695
"us","edgewater","Edgewater","FL",21209,28.9886111,-80.9025
"us","egypt lake-leto","Egypt Lake-Leto","FL",46140,28.0166667,-82.4955556
"us","elfers","Elfers","FL",13662,28.2163889,-82.7225
"us","englewood","Englewood","FL",16907,26.9616667,-82.3527778
"us","ensley","Ensley","FL",20146,30.5186111,-87.2727778
"us","eustis","Eustis","FL",17071,28.8525,-81.6855556
"us","fairview shores","Fairview Shores","FL",14353,28.5908333,-81.3944444
"us","fern park","Fern Park","FL",8394,28.6488889,-81.3513889
"us","fernandina beach","Fernandina Beach","FL",11257,30.6694444,-81.4627778
"us","ferry pass","Ferry Pass","FL",27810,30.51,-87.2125
"us","florida ridge","Florida Ridge","FL",16999,27.58,-80.3869444
"us","forest city","Forest City","FL",13767,28.6613889,-81.4191667
"us","fort lauderdale","Fort Lauderdale","FL",170510,26.1219444,-80.1436111
"us","fort myers","Fort Myers","FL",53015,26.6402778,-81.8725
"us","fort myers beach","Fort Myers Beach","FL",6876,26.4516667,-81.9483333
"us","fort pierce","Fort Pierce","FL",37723,27.4463889,-80.3258333
"us","fort walton beach","Fort Walton Beach","FL",19731,30.4055556,-86.6188889
"us","fruitville","Fruitville","FL",14518,27.3294444,-82.4577778
"us","gainesville","Gainesville","FL",125684,29.6513889,-82.325
"us","gladeview","Gladeview","FL",14058,25.8388889,-80.2358333
"us","glenvar heights","Glenvar Heights","FL",17087,25.7072222,-80.3258333
"us","golden gate","Golden Gate","FL",25388,26.1875,-81.6952778
"us","golden glades","Golden Glades","FL",36924,25.9113889,-80.2005556
"us","goldenrod","Goldenrod","FL",13219,28.61,-81.2888889
"us","gulf gate estates","Gulf Gate Estates","FL",11749,27.2591667,-82.5069444
"us","gulfport","Gulfport","FL",12612,27.7480556,-82.7036111
"us","haines city","Haines City","FL",14457,28.1138889,-81.6180556
"us","hallandale beach","Hallandale Beach","FL",35761,25.9808333,-80.1486111
"us","hamptons at boca raton","Hamptons at Boca Raton","FL",11218,26.3822222,-80.1861111
"us","hialeah","Hialeah","FL",224840,25.8572222,-80.2783333
"us","hialeah gardens","Hialeah Gardens","FL",20241,25.8647222,-80.3247222
"us","hobe sound","Hobe Sound","FL",11403,27.0591667,-80.1366667
"us","holiday","Holiday","FL",23391,28.1875,-82.7397222
"us","holly hill","Holly Hill","FL",12738,29.2433333,-81.0377778
"us","hollywood","Hollywood","FL",144821,26.0108333,-80.1497222
"us","homestead","Homestead","FL",35379,25.4683333,-80.4777778
"us","immokalee","Immokalee","FL",23322,26.4183333,-81.4175
"us","indian harbour beach","Indian Harbour Beach","FL",8579,28.1486111,-80.5886111
"us","iona","Iona","FL",13052,26.52,-81.9641667
"us","ives estates","Ives Estates","FL",20043,25.9619444,-80.1769444
"us","jacksonville","Jacksonville","FL",797557,30.3319444,-81.6558333
"us","jacksonville beach","Jacksonville Beach","FL",21552,30.2944444,-81.3933333
"us","jasmine estates","Jasmine Estates","FL",18887,28.2927778,-82.6902778
"us","jensen beach","Jensen Beach","FL",11812,27.2541667,-80.23
"us","jupiter","Jupiter","FL",48974,26.9338889,-80.0944444
"us","kendale lakes","Kendale Lakes","FL",61791,25.7077778,-80.4072222
"us","kendall","Kendall","FL",83026,25.6788889,-80.3175
"us","key biscayne","Key Biscayne","FL",10122,25.6933333,-80.1630556
"us","key largo","Key Largo","FL",12247,25.0861111,-80.4475
"us","key west","Key West","FL",24646,24.5552778,-81.7827778
"us","kings point","Kings Point","FL",12201,26.445,-80.14
"us","kissimmee","Kissimmee","FL",63685,28.2916667,-81.4077778
"us","lady lake","Lady Lake","FL",13262,28.9172222,-81.9230556
"us","lake city","Lake City","FL",10924,30.1894444,-82.6394444
"us","lake lucerne","Lake Lucerne","FL",9044,25.9647222,-80.2416667
"us","lake magdalene","Lake Magdalene","FL",38195,28.0738889,-82.4719444
"us","lake mary","Lake Mary","FL",14599,28.7586111,-81.3180556
"us","lake park","Lake Park","FL",9656,26.8,-80.0666667
"us","lake wales","Lake Wales","FL",12407,27.9011111,-81.5861111
"us","lake worth","Lake Worth","FL",35817,26.6155556,-80.0572222
"us","lakeland","Lakeland","FL",90761,28.0391667,-81.95
"us","lakeland highlands","Lakeland Highlands","FL",14100,27.9594444,-81.9502778
"us","lakeside","Lakeside","FL",32051,30.1297222,-81.7683333
"us","lantana","Lantana","FL",9816,26.5863889,-80.0522222
"us","largo","Largo","FL",71666,27.9091667,-82.7875
"us","lauderdale lakes","Lauderdale Lakes","FL",31589,26.1661111,-80.2086111
"us","lauderhill","Lauderhill","FL",59861,26.14,-80.2136111
"us","laurel","Laurel","FL",8529,27.13,-82.4533333
"us","leesburg","Leesburg","FL",18284,28.8105556,-81.8780556
"us","lehigh acres","Lehigh Acres","FL",48534,26.625,-81.625
"us","leisure city","Leisure City","FL",23770,25.495,-80.4294444
"us","lighthouse point","Lighthouse Point","FL",11237,26.2752778,-80.0875
"us","lockhart","Lockhart","FL",13713,28.6191667,-81.4427778
"us","longwood","Longwood","FL",13594,28.7027778,-81.3386111
"us","lutz","Lutz","FL",21583,28.1508333,-82.4616667
"us","lynn haven","Lynn Haven","FL",15945,30.2452778,-85.6483333
"us","maitland","Maitland","FL",11686,28.6275,-81.3633333
"us","mango","Mango","FL",8979,27.9794444,-82.3066667
"us","marathon","Marathon","FL",10060,24.7133333,-81.0905556
"us","margate","Margate","FL",55510,26.2441667,-80.2066667
"us","melbourne","Melbourne","FL",76326,28.0833333,-80.6083333
"us","merritt island","Merritt Island","FL",37991,28.5388889,-80.6722222
"us","miami","Miami","FL",382894,25.7738889,-80.1938889
"us","miami beach","Miami Beach","FL",89326,25.7902778,-80.1302778
"us","miami lakes","Miami Lakes","FL",22582,25.9083333,-80.3088889
"us","miami shores","Miami Shores","FL",10056,25.8627778,-80.1930556
"us","miami springs","Miami Springs","FL",13383,25.8219444,-80.2897222
"us","micco","Micco","FL",9944,27.8802778,-80.5005556
"us","mims","Mims","FL",9095,28.665,-80.845
"us","miramar","Miramar","FL",112922,25.9869444,-80.2325
"us","mount dora","Mount Dora","FL",10924,28.8022222,-81.6447222
"us","myrtle grove","Myrtle Grove","FL",17255,30.4208333,-87.3075
"us","naples","Naples","FL",21498,26.1416667,-81.795
"us","naples park","Naples Park","FL",6756,26.2613889,-81.8094444
"us","new port richey","New Port Richey","FL",17154,28.2438889,-82.7194444
"us","new smyrna beach","New Smyrna Beach","FL",21234,29.0255556,-80.9272222
"us","niceville","Niceville","FL",12573,30.5166667,-86.4822222
"us","norland","Norland","FL",23604,25.9486111,-80.2125
"us","north andrews gardens","North Andrews Gardens","FL",10056,26.1911111,-80.1444444
"us","north fort myers","North Fort Myers","FL",46482,26.6669444,-81.8802778
"us","north lauderdale","North Lauderdale","FL",34267,26.2169444,-80.2261111
"us","north miami","North Miami","FL",58472,25.8897222,-80.1869444
"us","north miami beach","North Miami Beach","FL",39735,25.9327778,-80.1627778
"us","north palm beach","North Palm Beach","FL",12863,26.8172222,-80.0822222
"us","north port","North Port","FL",38054,27.0438889,-82.2361111
"us","oak ridge","Oak Ridge","FL",26836,28.4708333,-81.4247222
"us","oakland park","Oakland Park","FL",31605,26.1719444,-80.1322222
"us","ocala","Ocala","FL",49558,29.1869444,-82.1402778
"us","ocoee","Ocoee","FL",28570,28.5688889,-81.5441667
"us","ojus","Ojus","FL",17330,25.9480556,-80.1508333
"us","oldsmar","Oldsmar","FL",15172,28.0338889,-82.6652778
"us","olympia heights","Olympia Heights","FL",14874,25.7263889,-80.3555556
"us","opa-locka","Opa-locka","FL",14563,25.9019444,-80.2505556
"us","orange park","Orange Park","FL",9265,30.1658333,-81.7066667
"us","orlando","Orlando","FL",207970,28.5380556,-81.3794444
"us","ormond beach","Ormond Beach","FL",38455,29.2855556,-81.0561111
"us","oviedo","Oviedo","FL",29056,28.6697222,-81.2083333
"us","palatka","Palatka","FL",10737,29.6483333,-81.6377778
"us","palm bay","Palm Bay","FL",89093,28.0341667,-80.5888889
"us","palm beach","Palm Beach","FL",9767,26.7052778,-80.0366667
"us","palm beach gardens","Palm Beach Gardens","FL",48140,26.8230556,-80.1388889
"us","palm city","Palm City","FL",28165,27.1675,-80.2663889
"us","palm coast","Palm Coast","FL",41483,29.5847222,-81.2080556
"us","palm harbor","Palm Harbor","FL",64502,28.0777778,-82.7638889
"us","palm springs","Palm Springs","FL",14329,26.6355556,-80.0963889
"us","palm valley","Palm Valley","FL",27680,30.1772222,-81.3877778
"us","palmetto","Palmetto","FL",12806,27.5211111,-82.5725
"us","palmetto estates","Palmetto Estates","FL",14488,25.6211111,-80.3622222
"us","panama city","Panama City","FL",37633,30.1586111,-85.6602778
"us","parkland","Parkland","FL",24693,26.3097222,-80.2375
"us","pembroke pines","Pembroke Pines","FL",155862,26.0027778,-80.2241667
"us","pensacola","Pensacola","FL",54104,30.4211111,-87.2169444
"us","pine castle","Pine Castle","FL",9132,28.4716667,-81.3680556
"us","pine hills","Pine Hills","FL",45530,28.5575,-81.4536111
"us","pinecrest","Pinecrest","FL",19720,25.6666667,-80.3083333
"us","pinellas park","Pinellas Park","FL",46495,27.8425,-82.6997222
"us","pinewood","Pinewood","FL",17149,25.8686111,-80.2172222
"us","plant city","Plant City","FL",31675,28.0183333,-82.1130556
"us","plantation","Plantation","FL",85739,26.1272222,-80.2333333
"us","pompano beach","Pompano Beach","FL",89715,26.2375,-80.125
"us","pompano beach highlands","Pompano Beach Highlands","FL",7192,26.2825,-80.1072222
"us","port charlotte","Port Charlotte","FL",49333,26.9758333,-82.0908333
"us","port orange","Port Orange","FL",54209,29.1380556,-80.9958333
"us","port saint john","Port Saint John","FL",14082,28.4766667,-80.7888889
"us","port saint lucie","Port Saint Lucie","FL",119371,27.2936111,-80.3505556
"us","punta gorda","Punta Gorda","FL",18306,26.9294444,-82.0455556
"us","richmond heights","Richmond Heights","FL",8496,25.6311111,-80.3691667
"us","richmond west","Richmond West","FL",31541,25.61,-80.4297222
"us","riviera beach","Riviera Beach","FL",33678,26.775,-80.0583333
"us","rockledge","Rockledge","FL",23511,28.3505556,-80.7255556
"us","royal palm beach","Royal Palm Beach","FL",34750,26.7080556,-80.2308333
"us","safety harbor","Safety Harbor","FL",17528,27.9905556,-82.6933333
"us","saint augustine","Saint Augustine","FL",12097,29.8944444,-81.3147222
"us","saint cloud","Saint Cloud","FL",22947,28.2486111,-81.2813889
"us","saint pete beach","Saint Pete Beach","FL",10065,27.725,-82.7413889
"us","saint petersburg","Saint Petersburg","FL",246316,27.7705556,-82.6794444
"us","san carlos park","San Carlos Park","FL",19158,26.4669444,-81.8016667
"us","sandalfoot cove","Sandalfoot Cove","FL",17964,26.3388889,-80.1877778
"us","sanford","Sanford","FL",45289,28.8002778,-81.2733333
"us","sarasota","Sarasota","FL",53327,27.3361111,-82.5308333
"us","sarasota springs","Sarasota Springs","FL",15898,27.3086111,-82.4797222
"us","satellite beach","Satellite Beach","FL",9321,28.1758333,-80.5902778
"us","scott lake","Scott Lake","FL",14425,25.9411111,-80.2322222
"us","sebastian","Sebastian","FL",18953,27.8161111,-80.4708333
"us","sebring","Sebring","FL",10030,27.4952778,-81.4411111
"us","seminole","Seminole","FL",16758,27.8394444,-82.7913889
"us","south bradenton","South Bradenton","FL",22340,27.4627778,-82.5819444
"us","south daytona","South Daytona","FL",14451,29.1655556,-81.0047222
"us","south miami","South Miami","FL",12169,25.7072222,-80.2936111
"us","south miami heights","South Miami Heights","FL",35571,25.5972222,-80.3808333
"us","south patrick shores","South Patrick Shores","FL",9031,28.2019444,-80.6097222
"us","south venice","South Venice","FL",14467,27.0527778,-82.4244444
"us","spring hill","Spring Hill","FL",96767,28.5555556,-82.4505556
"us","springfield","Springfield","FL",9181,30.1530556,-85.6113889
"us","stuart","Stuart","FL",15112,27.1972222,-80.2530556
"us","sunrise","Sunrise","FL",90993,26.1336111,-80.1133333
"us","sunset","Sunset","FL",17956,25.7055556,-80.3525
"us","sweetwater","Sweetwater","FL",13937,25.7630556,-80.3733333
"us","tallahassee","Tallahassee","FL",153583,30.4380556,-84.2808333
"us","tamarac","Tamarac","FL",59268,26.2125,-80.25
"us","tamiami","Tamiami","FL",69225,25.7583333,-80.3986111
"us","tampa","Tampa","FL",324465,27.9472222,-82.4586111
"us","tarpon springs","Tarpon Springs","FL",22935,28.1458333,-82.7569444
"us","tavares","Tavares","FL",11684,28.8038889,-81.7258333
"us","temple terrace","Temple Terrace","FL",22036,28.035,-82.3894444
"us","the crossings","The Crossings","FL",26047,25.6702778,-80.4013889
"us","the hammocks","The Hammocks","FL",69604,25.6711111,-80.4447222
"us","titusville","Titusville","FL",42700,28.6119444,-80.8077778
"us","university park","University Park","FL",28168,28.5666667,-81.2083333
"us","venice","Venice","FL",20457,27.0994444,-82.4544444
"us","vero beach","Vero Beach","FL",17262,27.6383333,-80.3975
"us","villas","Villas","FL",12191,26.55,-81.8688889
"us","warrington","Warrington","FL",14946,30.3838889,-87.275
"us","wekiva springs","Wekiva Springs","FL",23416,28.6983333,-81.4258333
"us","wellington","Wellington","FL",53164,26.6583333,-80.2416667
"us","west little river","West Little River","FL",32252,25.8566667,-80.2372222
"us","west melbourne","West Melbourne","FL",14159,28.0713889,-80.6536111
"us","west palm beach","West Palm Beach","FL",93620,26.715,-80.0536111
"us","west pensacola","West Pensacola","FL",22030,30.4263889,-87.2797222
"us","westchester","Westchester","FL",30690,25.7544444,-80.3275
"us","weston","Weston","FL",68254,26.1,-80.4
"us","westview","Westview","FL",9779,25.8816667,-80.2422222
"us","wilton manors","Wilton Manors","FL",12888,26.16,-80.1391667
"us","winston","Winston","FL",9050,28.0313889,-82.015
"us","winter garden","Winter Garden","FL",24774,28.565,-81.5863889
"us","winter haven","Winter Haven","FL",27938,28.0219444,-81.7330556
"us","winter park","Winter Park","FL",28530,28.5997222,-81.3394444
"us","winter springs","Winter Springs","FL",32658,28.6986111,-81.3083333
"us","wright","Wright","FL",23302,30.4555556,-86.6383333
"us","yeehaw junction","Yeehaw Junction","FL",24080,27.7,-80.9044444
"us","zephyrhills","Zephyrhills","FL",12092,28.2333333,-82.1813889
"us","acworth","Acworth","GA",19852,34.0658333,-84.6769444
"us","albany","Albany","GA",75794,31.5783333,-84.1558333
"us","alpharetta","Alpharetta","GA",34869,34.0752778,-84.2941667
"us","americus","Americus","GA",16817,32.0722222,-84.2327778
"us","atlanta","Atlanta","GA",422908,33.7488889,-84.3880556
"us","austell","Austell","GA",6945,33.8125,-84.6344444
"us","bainbridge","Bainbridge","GA",11714,30.9036111,-84.5755556
"us","belvedere park","Belvedere Park","GA",19149,33.7547222,-84.2675
"us","brunswick","Brunswick","GA",16486,31.1497222,-81.4916667
"us","buford","Buford","GA",10860,34.1205556,-84.0044444
"us","cairo","Cairo","GA",9471,30.8772222,-84.2013889
"us","calhoun","Calhoun","GA",13707,34.5025,-84.9511111
"us","canton","Canton","GA",17850,34.2366667,-84.4908333
"us","carrollton","Carrollton","GA",21353,33.58,-85.0766667
"us","cartersville","Cartersville","GA",17703,34.165,-84.8
"us","cedartown","Cedartown","GA",9726,34.0536111,-85.255
"us","centerville","Centerville","GA",5795,32.63,-83.6897222
"us","chamblee","Chamblee","GA",8887,33.8919444,-84.2988889
"us","college park","College Park","GA",17957,33.6533333,-84.4494444
"us","columbus","Columbus","GA",185208,32.4608333,-84.9877778
"us","conyers","Conyers","GA",12528,33.6675,-84.0177778
"us","cordele","Cordele","GA",11411,31.9633333,-83.7825
"us","covington","Covington","GA",14379,33.5966667,-83.8602778
"us","dallas","Dallas","GA",7995,33.9236111,-84.8408333
"us","dalton","Dalton","GA",31598,34.7697222,-84.9702778
"us","dawson","Dawson","GA",4991,31.7733333,-84.4466667
"us","decatur","Decatur","GA",17458,33.7747222,-84.2963889
"us","doraville","Doraville","GA",10065,33.8980556,-84.2833333
"us","douglas","Douglas","GA",10877,31.5086111,-82.85
"us","douglasville","Douglasville","GA",31791,33.7513889,-84.7477778
"us","druid hills","Druid Hills","GA",12874,33.7802778,-84.3361111
"us","dublin","Dublin","GA",15894,32.5402778,-82.9038889
"us","duluth","Duluth","GA",25213,34.0027778,-84.1447222
"us","dunwoody","Dunwoody","GA",35997,33.9461111,-84.3347222
"us","east point","East Point","GA",35786,33.6794444,-84.4394444
"us","eatonton","Eatonton","GA",6988,33.3266667,-83.3886111
"us","evans","Evans","GA",19779,33.5336111,-82.1308333
"us","fairburn","Fairburn","GA",8205,33.5669444,-84.5811111
"us","fayetteville","Fayetteville","GA",14878,33.4486111,-84.455
"us","forest park","Forest Park","GA",21153,33.6219444,-84.3691667
"us","fort oglethorpe","Fort Oglethorpe","GA",8463,34.9488889,-85.2569444
"us","fort stewart","Fort Stewart","GA",10941,31.8625,-81.5177778
"us","gainesville","Gainesville","GA",33297,34.2977778,-83.8241667
"us","garden city","Garden City","GA",10738,32.1141667,-81.1541667
"us","gresham park","Gresham Park","GA",9216,33.7033333,-84.3144444
"us","griffin","Griffin","GA",23820,33.2466667,-84.2641667
"us","hinesville","Hinesville","GA",28066,31.8466667,-81.5961111
"us","jesup","Jesup","GA",9582,31.6072222,-81.8855556
"us","kennesaw","Kennesaw","GA",28439,34.0233333,-84.6155556
"us","kingsland","Kingsland","GA",11410,30.7997222,-81.69
"us","lawrenceville","Lawrenceville","GA",29368,33.9561111,-83.9880556
"us","lilburn","Lilburn","GA",11347,33.89,-84.1430556
"us","lithia springs","Lithia Springs","GA",2012,33.7938889,-84.6605556
"us","loganville","Loganville","GA",9423,33.8388889,-83.9008333
"us","mableton","Mableton","GA",31476,33.8186111,-84.5825
"us","macon","Macon","GA",94273,32.8405556,-83.6325
"us","marietta","Marietta","GA",61360,33.9525,-84.55
"us","martinez","Martinez","GA",27195,33.5172222,-82.0758333
"us","milledgeville","Milledgeville","GA",19682,33.08,-83.2322222
"us","monroe","Monroe","GA",12189,33.7947222,-83.7133333
"us","moultrie","Moultrie","GA",14644,31.1797222,-83.7891667
"us","mountain park","Mountain Park","GA",496,34.0808333,-84.4113889
"us","newnan","Newnan","GA",23409,33.3805556,-84.7997222
"us","norcross","Norcross","GA",9717,33.9411111,-84.2136111
"us","north atlanta","North Atlanta","GA",44493,33.865,-84.3366667
"us","north decatur","North Decatur","GA",15765,33.7902778,-84.3061111
"us","north druid hills","North Druid Hills","GA",21320,33.8166667,-84.3133333
"us","panthersville","Panthersville","GA",12675,33.7072222,-84.2719444
"us","peachtree city","Peachtree City","GA",34215,33.3966667,-84.5958333
"us","perry","Perry","GA",11234,32.4580556,-83.7316667
"us","pooler","Pooler","GA",10175,32.1152778,-81.2472222
"us","powder springs","Powder Springs","GA",14616,33.8594444,-84.6838889
"us","redan","Redan","GA",39044,33.7452778,-84.1316667
"us","richmond hill","Richmond Hill","GA",9414,31.9380556,-81.3036111
"us","rincon","Rincon","GA",6521,32.2958333,-81.2355556
"us","riverdale","Riverdale","GA",16090,33.5725,-84.4133333
"us","rome","Rome","GA",35452,34.2569444,-85.1647222
"us","roswell","Roswell","GA",77218,34.0230556,-84.3616667
"us","saint marys","Saint Marys","GA",17040,30.7302778,-81.5466667
"us","saint simons","Saint Simons","GA",13915,31.135,-81.3902778
"us","sandy springs","Sandy Springs","GA",94717,33.9241667,-84.3786111
"us","savannah","Savannah","GA",126119,32.0833333,-81.1
"us","smyrna","Smyrna","GA",46561,33.8838889,-84.5144444
"us","snellville","Snellville","GA",18687,33.8572222,-84.02
"us","statesboro","Statesboro","GA",24558,32.4486111,-81.7833333
"us","stockbridge","Stockbridge","GA",12379,33.5441667,-84.2338889
"us","sugar hill","Sugar Hill","GA",15348,34.1063889,-84.0336111
"us","suwanee","Suwanee","GA",11434,34.0513889,-84.0713889
"us","thomaston","Thomaston","GA",9264,32.8880556,-84.3266667
"us","thomasville","Thomasville","GA",18528,30.8363889,-83.9788889
"us","tifton","Tifton","GA",15902,31.4502778,-83.5086111
"us","toccoa","Toccoa","GA",9178,34.5772222,-83.3325
"us","tucker","Tucker","GA",26597,33.8544444,-84.2172222
"us","union city","Union City","GA",14196,33.5869444,-84.5425
"us","valdosta","Valdosta","GA",45661,30.8325,-83.2786111
"us","vidalia","Vidalia","GA",10743,32.2175,-82.4136111
"us","villa rica","Villa Rica","GA",11328,33.7319444,-84.9191667
"us","warner robins","Warner Robins","GA",57764,32.6208333,-83.6
"us","waycross","Waycross","GA",15067,31.2133333,-82.3541667
"us","wilmington island","Wilmington Island","GA",15702,32.0033333,-80.9738889
"us","winder","Winder","GA",12643,33.9925,-83.7202778
"us","woodstock","Woodstock","GA",18902,34.1013889,-84.5194444
"us","ahuimanu","Ahuimanu","HI",8731,21.4447222,-157.8377778
"us","aiea","Aiea","HI",9251,21.3822222,-157.9336111
"us","ewa beach","Ewa Beach","HI",15100,21.3155556,-158.0072222
"us","hilo","Hilo","HI",43050,19.7297222,-155.09
"us","honolulu","Honolulu","HI",384241,21.3069444,-157.8583333
"us","kahului","Kahului","HI",22315,20.8947222,-156.47
"us","kailua","Kailua","HI",37079,21.4022222,-157.7394444
"us","kaneohe","Kaneohe","HI",35424,21.4180556,-157.8036111
"us","kapaa","Kapaa","HI",10365,22.0783333,-159.3219444
"us","kihei","Kihei","HI",20707,20.785,-156.4655556
"us","lahaina","Lahaina","HI",9319,20.8783333,-156.6825
"us","makaha","Makaha","HI",7794,21.4694444,-158.2175
"us","makakilo city","Makakilo City","HI",15383,21.3469444,-158.0858333
"us","mililani town","Mililani Town","HI",28812,21.45,-158.0011111
"us","nanakuli","Nanakuli","HI",11675,21.3905556,-158.1547222
"us","pearl city","Pearl City","HI",31572,21.3972222,-157.9733333
"us","wahiawa","Wahiawa","HI",15906,21.5027778,-158.0236111
"us","waianae","Waianae","HI",11668,21.4447222,-158.19
"us","wailuku","Wailuku","HI",13391,20.8911111,-156.5047222
"us","waimalu","Waimalu","HI",29662,21.4047222,-157.9433333
"us","waipahu","Waipahu","HI",34588,21.3866667,-158.0091667
"us","ammon","Ammon","ID",10530,43.4697222,-111.9658333
"us","blackfoot","Blackfoot","ID",10810,43.1905556,-112.3441667
"us","burley","Burley","ID",9247,42.5358333,-113.7919444
"us","caldwell","Caldwell","ID",34330,43.6630556,-116.6863889
"us","chubbuck","Chubbuck","ID",10455,42.9208333,-112.4652778
"us","eagle","Eagle","ID",18351,43.6955556,-116.3530556
"us","emmett","Emmett","ID",6239,43.8736111,-116.4983333
"us","garden city","Garden City","ID",11366,43.6222222,-116.2372222
"us","hailey","Hailey","ID",7922,43.5197222,-114.3144444
"us","hayden","Hayden","ID",11481,47.7661111,-116.7855556
"us","idaho falls","Idaho Falls","ID",52175,43.4666667,-112.0333333
"us","jerome","Jerome","ID",8287,42.7241667,-114.5177778
"us","kuna","Kuna","ID",11410,43.4919444,-116.4191667
"us","lewiston","Lewiston","ID",31422,46.4166667,-117.0166667
"us","meridian","Meridian","ID",45803,43.6122222,-116.3905556
"us","moscow","Moscow","ID",21865,46.7325,-116.9991667
"us","mountain home","Mountain Home","ID",11287,43.1330556,-115.6902778
"us","nampa","Nampa","ID",73064,43.5408333,-116.5625
"us","payette","Payette","ID",7525,44.0783333,-116.9327778
"us","pocatello","Pocatello","ID",50656,42.8713889,-112.4447222
"us","post falls","Post Falls","ID",22287,47.7180556,-116.9505556
"us","preston","Preston","ID",4957,42.0963889,-111.8758333
"us","rathdrum","Rathdrum","ID",5725,47.8125,-116.8955556
"us","rexburg","Rexburg","ID",29439,43.8261111,-111.7888889
"us","rupert","Rupert","ID",5216,42.6191667,-113.6763889
"us","sandpoint","Sandpoint","ID",7785,48.2766667,-116.5522222
"us","twin falls","Twin Falls","ID",38602,42.5630556,-114.46
"us","weiser","Weiser","ID",5396,44.2511111,-116.9683333
"us","addison","Addison","IL",37394,41.9316667,-87.9888889
"us","algonquin","Algonquin","IL",30394,42.1655556,-88.2941667
"us","alsip","Alsip","IL",19302,41.6688889,-87.7386111
"us","alton","Alton","IL",29251,38.8905556,-90.1841667
"us","antioch","Antioch","IL",11802,42.4772222,-88.0955556
"us","arlington heights","Arlington Heights","IL",74995,42.0883333,-87.9805556
"us","aurora","Aurora","IL",174276,41.7605556,-88.32
"us","barrington","Barrington","IL",10157,42.1538889,-88.1361111
"us","bartlett","Bartlett","IL",38269,41.995,-88.1855556
"us","batavia","Batavia","IL",28175,41.85,-88.3125
"us","beach park","Beach Park","IL",12382,42.4222222,-87.8572222
"us","belleville","Belleville","IL",40919,38.52,-89.9838889
"us","bellwood","Bellwood","IL",19751,41.8813889,-87.8830556
"us","belvidere","Belvidere","IL",24547,42.2638889,-88.8441667
"us","bensenville","Bensenville","IL",20496,41.955,-87.94
"us","berwyn","Berwyn","IL",51376,41.8505556,-87.7936111
"us","bethalto","Bethalto","IL",9727,38.9091667,-90.0405556
"us","bloomingdale","Bloomingdale","IL",21747,41.9575,-88.0808333
"us","bloomington","Bloomington","IL",70706,40.4841667,-88.9936111
"us","blue island","Blue Island","IL",22923,41.6572222,-87.68
"us","bolingbrook","Bolingbrook","IL",73220,41.6986111,-88.0683333
"us","bourbonnais","Bourbonnais","IL",16495,41.1416667,-87.875
"us","bradley","Bradley","IL",13748,41.1419444,-87.8611111
"us","bridgeview","Bridgeview","IL",15126,41.75,-87.8041667
"us","brookfield","Brookfield","IL",18908,41.8238889,-87.8516667
"us","buffalo grove","Buffalo Grove","IL",43281,42.1513889,-87.9597222
"us","burbank","Burbank","IL",28020,41.7338889,-87.7794444
"us","burr ridge","Burr Ridge","IL",10938,41.7488889,-87.9183333
"us","cahokia","Cahokia","IL",15761,38.5708333,-90.19
"us","calumet city","Calumet City","IL",38388,41.6155556,-87.5294444
"us","canton","Canton","IL",14802,40.5580556,-90.035
"us","carbondale","Carbondale","IL",24502,37.7272222,-89.2166667
"us","carol stream","Carol Stream","IL",39839,41.9125,-88.1347222
"us","carpentersville","Carpentersville","IL",36834,42.1211111,-88.2577778
"us","cary","Cary","IL",20315,42.2119444,-88.2380556
"us","centralia","Centralia","IL",13426,38.525,-89.1333333
"us","champaign","Champaign","IL",75670,40.1163889,-88.2433333
"us","channahon","Channahon","IL",11994,41.4294444,-88.2286111
"us","charleston","Charleston","IL",19399,39.4961111,-88.1761111
"us","chatham","Chatham","IL",9837,39.6761111,-89.7044444
"us","chicago","Chicago","IL",2841952,41.85,-87.65
"us","chicago heights","Chicago Heights","IL",31806,41.5061111,-87.6355556
"us","chicago ridge","Chicago Ridge","IL",13687,41.7013889,-87.7791667
"us","cicero","Cicero","IL",81184,41.8455556,-87.7538889
"us","collinsville","Collinsville","IL",25491,38.6702778,-89.9844444
"us","country club hills","Country Club Hills","IL",16350,41.5680556,-87.7202778
"us","crest hill","Crest Hill","IL",16776,41.5547222,-88.0986111
"us","crestwood","Crestwood","IL",11296,41.6611111,-87.7525
"us","crystal lake","Crystal Lake","IL",41188,42.2411111,-88.3161111
"us","danville","Danville","IL",32587,40.1244444,-87.63
"us","darien","Darien","IL",22677,41.7519444,-87.9738889
"us","dekalb","DeKalb","IL",43383,41.9294444,-88.7502778
"us","decatur","Decatur","IL",77868,39.8402778,-88.9547222
"us","deerfield","Deerfield","IL",19618,42.1711111,-87.8444444
"us","des plaines","Des Plaines","IL",54067,42.0333333,-87.8833333
"us","dixon","Dixon","IL",14869,41.8388889,-89.4794444
"us","dolton","Dolton","IL",24779,41.6388889,-87.6072222
"us","downers grove","Downers Grove","IL",49504,41.8088889,-88.0111111
"us","east moline","East Moline","IL",21058,41.5008333,-90.4441667
"us","east peoria","East Peoria","IL",22352,40.6661111,-89.58
"us","east saint louis","East Saint Louis","IL",29773,38.6244444,-90.1508333
"us","edwardsville","Edwardsville","IL",24551,38.8113889,-89.9530556
"us","effingham","Effingham","IL",12616,39.12,-88.5433333
"us","elgin","Elgin","IL",98586,42.0372222,-88.2811111
"us","elk grove village","Elk Grove Village","IL",34261,42.0038889,-87.9702778
"us","elmhurst","Elmhurst","IL",45060,41.8994444,-87.9402778
"us","elmwood park","Elmwood Park","IL",24418,41.9211111,-87.8091667
"us","evanston","Evanston","IL",75311,42.0411111,-87.69
"us","evergreen park","Evergreen Park","IL",20139,41.7205556,-87.7016667
"us","fairview heights","Fairview Heights","IL",15362,38.5888889,-89.9902778
"us","flossmoor","Flossmoor","IL",9462,41.5427778,-87.6847222
"us","forest park","Forest Park","IL",15171,41.8794444,-87.8136111
"us","fox lake","Fox Lake","IL",10486,42.3966667,-88.1836111
"us","frankfort","Frankfort","IL",15611,41.4958333,-87.8486111
"us","franklin park","Franklin Park","IL",18728,41.9352778,-87.8655556
"us","freeport","Freeport","IL",25619,42.2966667,-89.6211111
"us","galesburg","Galesburg","IL",32094,40.9477778,-90.3711111
"us","geneva","Geneva","IL",23974,41.8875,-88.3052778
"us","glen carbon","Glen Carbon","IL",11567,38.7483333,-89.9830556
"us","glen ellyn","Glen Ellyn","IL",27276,41.8775,-88.0669444
"us","glendale heights","Glendale Heights","IL",33047,41.9102778,-88.0716667
"us","glenview","Glenview","IL",46539,42.0697222,-87.7877778
"us","godfrey","Godfrey","IL",16844,38.9555556,-90.1866667
"us","goodings grove","Goodings Grove","IL",18569,41.6291667,-87.9308333
"us","granite city","Granite City","IL",30732,38.7013889,-90.1486111
"us","grayslake","Grayslake","IL",22768,42.3444444,-88.0416667
"us","gurnee","Gurnee","IL",31346,42.3702778,-87.9019444
"us","hanover park","Hanover Park","IL",37083,41.9994444,-88.145
"us","harrisburg","Harrisburg","IL",9594,37.7383333,-88.5405556
"us","harvard","Harvard","IL",8996,42.4222222,-88.6136111
"us","harvey","Harvey","IL",28812,41.61,-87.6466667
"us","hazel crest","Hazel Crest","IL",14606,41.5716667,-87.6944444
"us","herrin","Herrin","IL",11472,37.8030556,-89.0275
"us","hickory hills","Hickory Hills","IL",13601,41.7255556,-87.825
"us","highland park","Highland Park","IL",31403,42.1816667,-87.8002778
"us","hinsdale","Hinsdale","IL",18229,41.8008333,-87.9369444
"us","hoffman estates","Hoffman Estates","IL",50541,42.0427778,-88.0797222
"us","homewood","Homewood","IL",19082,41.5572222,-87.6655556
"us","huntley","Huntley","IL",16700,42.1680556,-88.4280556
"us","jacksonville","Jacksonville","IL",19479,39.7338889,-90.2288889
"us","joliet","Joliet","IL",134957,41.525,-88.0816667
"us","justice","Justice","IL",12691,41.7444444,-87.8377778
"us","kankakee","Kankakee","IL",26623,41.12,-87.8611111
"us","kewanee","Kewanee","IL",12574,41.2455556,-89.9247222
"us","la grange","La Grange","IL",15717,41.805,-87.8691667
"us","la grange park","La Grange Park","IL",12840,41.8347222,-87.8616667
"us","la salle","La Salle","IL",9480,41.3333333,-89.0916667
"us","lake forest","Lake Forest","IL",21014,42.2586111,-87.8405556
"us","lake zurich","Lake Zurich","IL",19903,42.1969444,-88.0933333
"us","lake in the hills","Lake in the Hills","IL",28541,42.1816667,-88.3302778
"us","lansing","Lansing","IL",27667,41.5647222,-87.5388889
"us","lemont","Lemont","IL",15042,41.6736111,-88.0016667
"us","libertyville","Libertyville","IL",21236,42.2830556,-87.9530556
"us","lincoln","Lincoln","IL",14899,40.1483333,-89.3647222
"us","lincolnwood","Lincolnwood","IL",12148,42.0044444,-87.73
"us","lindenhurst","Lindenhurst","IL",15038,42.4105556,-88.0261111
"us","lisle","Lisle","IL",21665,41.8011111,-88.0747222
"us","lockport","Lockport","IL",22146,41.5894444,-88.0577778
"us","lombard","Lombard","IL",42836,41.88,-88.0077778
"us","loves park","Loves Park","IL",22650,42.32,-89.0580556
"us","lyons","Lyons","IL",10667,41.8133333,-87.8180556
"us","machesney park","Machesney Park","IL",21494,42.3472222,-89.0388889
"us","macomb","Macomb","IL",19234,40.4591667,-90.6716667
"us","marion","Marion","IL",17265,37.7305556,-88.9330556
"us","markham","Markham","IL",12392,41.5936111,-87.6947222
"us","matteson","Matteson","IL",15209,41.5038889,-87.7130556
"us","mattoon","Mattoon","IL",17711,39.4830556,-88.3727778
"us","maywood","Maywood","IL",25872,41.8791667,-87.8430556
"us","melrose park","Melrose Park","IL",23054,41.9005556,-87.8566667
"us","midlothian","Midlothian","IL",14125,41.6252778,-87.7175
"us","mokena","Mokena","IL",19210,41.5261111,-87.8891667
"us","moline","Moline","IL",42668,41.5066667,-90.515
"us","monmouth","Monmouth","IL",9443,40.9113889,-90.6472222
"us","morris","Morris","IL",12582,41.3572222,-88.4211111
"us","morton","Morton","IL",15483,40.6127778,-89.4591667
"us","morton grove","Morton Grove","IL",22968,42.0405556,-87.7825
"us","mount prospect","Mount Prospect","IL",55303,42.0663889,-87.9372222
"us","mount vernon","Mount Vernon","IL",16505,38.316,-88.9106
"us","mundelein","Mundelein","IL",33012,42.2630556,-88.0038889
"us","naperville","Naperville","IL",143850,41.7858333,-88.1472222
"us","new lenox","New Lenox","IL",24315,41.5119444,-87.9655556
"us","niles","Niles","IL",29765,42.0188889,-87.8027778
"us","normal","Normal","IL",51331,40.5141667,-88.9905556
"us","norridge","Norridge","IL",14157,41.9633333,-87.8272222
"us","north aurora","North Aurora","IL",14447,41.8061111,-88.3272222
"us","north chicago","North Chicago","IL",37301,42.3255556,-87.8411111
"us","northbrook","Northbrook","IL",34322,42.1275,-87.8288889
"us","northlake","Northlake","IL",11497,41.9172222,-87.8955556
"us","oak forest","Oak Forest","IL",28122,41.6027778,-87.7438889
"us","oak lawn","Oak Lawn","IL",54767,41.7108333,-87.7580556
"us","oak park","Oak Park","IL",49509,41.885,-87.7844444
"us","orland park","Orland Park","IL",55741,41.6302778,-87.8538889
"us","oswego","Oswego","IL",21547,41.6827778,-88.3513889
"us","ottawa","Ottawa","IL",18897,41.3455556,-88.8425
"us","palatine","Palatine","IL",67828,42.1102778,-88.0341667
"us","palos heights","Palos Heights","IL",12821,41.6680556,-87.7963889
"us","palos hills","Palos Hills","IL",17501,41.6966667,-87.8169444
"us","park forest","Park Forest","IL",23401,41.4913889,-87.6744444
"us","park ridge","Park Ridge","IL",37034,42.0111111,-87.8405556
"us","pekin","Pekin","IL",32743,40.5675,-89.6405556
"us","peoria","Peoria","IL",113004,40.6936111,-89.5888889
"us","peru","Peru","IL",9829,41.3275,-89.1288889
"us","plainfield","Plainfield","IL",26488,41.6269444,-88.2038889
"us","pontiac","Pontiac","IL",10982,40.8808333,-88.6297222
"us","prospect heights","Prospect Heights","IL",16562,42.0952778,-87.9375
"us","quincy","Quincy","IL",39731,39.9355556,-91.4097222
"us","rantoul","Rantoul","IL",12991,40.3083333,-88.1558333
"us","richton park","Richton Park","IL",13049,41.4844444,-87.7033333
"us","river forest","River Forest","IL",11238,41.8977778,-87.8138889
"us","river grove","River Grove","IL",10278,41.9258333,-87.8358333
"us","riverdale","Riverdale","IL",14493,41.6333333,-87.6330556
"us","rochelle","Rochelle","IL",9686,41.9238889,-89.0686111
"us","rock falls","Rock Falls","IL",9374,41.7797222,-89.6888889
"us","rock island","Rock Island","IL",38383,41.5094444,-90.5786111
"us","rockford","Rockford","IL",152765,42.2711111,-89.0938889
"us","rolling meadows","Rolling Meadows","IL",24003,42.0841667,-88.0130556
"us","romeoville","Romeoville","IL",41420,41.6475,-88.0894444
"us","roselle","Roselle","IL",23119,41.9847222,-88.0797222
"us","round lake beach","Round Lake Beach","IL",29011,42.3716667,-88.09
"us","saint charles","Saint Charles","IL",34485,41.9141667,-88.3086111
"us","sauk village","Sauk Village","IL",10591,41.4883333,-87.5675
"us","schaumburg","Schaumburg","IL",73451,42.0333333,-88.0833333
"us","schiller park","Schiller Park","IL",11471,41.9558333,-87.8708333
"us","shiloh","Shiloh","IL",10671,38.5613889,-89.8972222
"us","shorewood","Shorewood","IL",11827,41.52,-88.2016667
"us","skokie","Skokie","IL",64227,42.0333333,-87.7333333
"us","south elgin","South Elgin","IL",22341,41.9941667,-88.2922222
"us","south holland","South Holland","IL",21937,41.6008333,-87.6069444
"us","springfield","Springfield","IL",115975,39.8016667,-89.6436111
"us","steger","Steger","IL",10209,41.47,-87.6363889
"us","sterling","Sterling","IL",15106,41.7886111,-89.6961111
"us","streamwood","Streamwood","IL",37625,42.0255556,-88.1783333
"us","streator","Streator","IL",13960,41.1208333,-88.8352778
"us","summit","Summit","IL",10312,41.7880556,-87.8102778
"us","swansea","Swansea","IL",12058,38.5338889,-89.9888889
"us","sycamore","Sycamore","IL",14145,41.9888889,-88.6866667
"us","taylorville","Taylorville","IL",11197,39.5488889,-89.2944444
"us","tinley park","Tinley Park","IL",57244,41.5733333,-87.7844444
"us","urbana","Urbana","IL",39511,40.1105556,-88.2072222
"us","vernon hills","Vernon Hills","IL",23510,42.2194444,-87.9794444
"us","villa park","Villa Park","IL",22868,41.8897222,-87.9888889
"us","warrenville","Warrenville","IL",13179,41.8177778,-88.1733333
"us","washington","Washington","IL",12294,40.7036111,-89.4072222
"us","waterloo","Waterloo","IL",9315,38.3358333,-90.1497222
"us","wauconda","Wauconda","IL",10269,42.2588889,-88.1391667
"us","waukegan","Waukegan","IL",92695,42.3636111,-87.8447222
"us","west chicago","West Chicago","IL",26014,41.8847222,-88.2038889
"us","westchester","Westchester","IL",16434,41.8505556,-87.8819444
"us","western springs","Western Springs","IL",12446,41.8097222,-87.9005556
"us","westmont","Westmont","IL",24552,41.7958333,-87.9755556
"us","wheaton","Wheaton","IL",54545,41.8661111,-88.1069444
"us","wheeling","Wheeling","IL",35815,42.1391667,-87.9288889
"us","wilmette","Wilmette","IL",26871,42.0722222,-87.7227778
"us","winfield","Winfield","IL",9802,41.8616667,-88.1608333
"us","winnetka","Winnetka","IL",12284,42.1080556,-87.7358333
"us","wood dale","Wood Dale","IL",13316,41.9633333,-87.9788889
"us","wood river","Wood River","IL",10971,38.8611111,-90.0975
"us","woodridge","Woodridge","IL",34500,41.7469444,-88.0502778
"us","woodstock","Woodstock","IL",21769,42.3147222,-88.4486111
"us","worth","Worth","IL",10741,41.6897222,-87.7972222
"us","zion","Zion","IL",24316,42.4461111,-87.8327778
"us","anderson","Anderson","IN",57496,40.1052778,-85.6802778
"us","angola","Angola","IN",7932,41.6347222,-84.9994444
"us","auburn","Auburn","IN",12870,41.3669444,-85.0588889
"us","bedford","Bedford","IN",13289,38.8611111,-86.4872222
"us","beech grove","Beech Grove","IN",14169,39.7219444,-86.09
"us","bloomington","Bloomington","IN",71253,39.1652778,-86.5263889
"us","bluffton","Bluffton","IN",9463,40.7386111,-85.1716667
"us","brownsburg","Brownsburg","IN",18528,39.8433333,-86.3977778
"us","carmel","Carmel","IN",47219,39.9783333,-86.1180556
"us","cedar lake","Cedar Lake","IN",9672,41.3647222,-87.4411111
"us","chesterton","Chesterton","IN",11563,41.6105556,-87.0641667
"us","clarksville","Clarksville","IN",21114,38.2966667,-85.76
"us","columbus","Columbus","IN",39395,39.2013889,-85.9213889
"us","connersville","Connersville","IN",14436,39.6411111,-85.1411111
"us","crawfordsville","Crawfordsville","IN",15066,40.0411111,-86.8744444
"us","crown point","Crown Point","IN",21914,41.4169444,-87.3652778
"us","decatur","Decatur","IN",9444,40.8305556,-84.9291667
"us","dyer","Dyer","IN",15143,41.4941667,-87.5216667
"us","east chicago","East Chicago","IN",30662,41.6391667,-87.4547222
"us","elkhart","Elkhart","IN",51400,41.6819444,-85.9766667
"us","elwood","Elwood","IN",9051,40.2769444,-85.8419444
"us","evansville","Evansville","IN",115474,37.9747222,-87.5558333
"us","fishers","Fishers","IN",54829,39.9555556,-86.0138889
"us","fort wayne","Fort Wayne","IN",229715,41.1305556,-85.1288889
"us","frankfort","Frankfort","IN",16315,40.2794444,-86.5108333
"us","franklin","Franklin","IN",21653,39.4805556,-86.055
"us","gary","Gary","IN",97966,41.5933333,-87.3463889
"us","goshen","Goshen","IN",30045,41.5822222,-85.8344444
"us","granger","Granger","IN",32749,41.7533333,-86.1108333
"us","greencastle","Greencastle","IN",10092,39.6444444,-86.8647222
"us","greenfield","Greenfield","IN",16257,39.785,-85.7694444
"us","greensburg","Greensburg","IN",10601,39.3372222,-85.4836111
"us","greenwood","Greenwood","IN",41244,39.6136111,-86.1066667
"us","griffith","Griffith","IN",16684,41.5283333,-87.4236111
"us","hammond","Hammond","IN",78883,41.5833333,-87.5
"us","hobart","Hobart","IN",28008,41.5322222,-87.255
"us","huntington","Huntington","IN",16932,40.8830556,-85.4975
"us","indianapolis","Indianapolis","IN",773283,39.7683333,-86.1580556
"us","jasper","Jasper","IN",13850,38.3913889,-86.9311111
"us","jeffersonville","Jeffersonville","IN",28465,38.2775,-85.7372222
"us","kendallville","Kendallville","IN",9629,41.4413889,-85.265
"us","kokomo","Kokomo","IN",46227,40.4863889,-86.1336111
"us","lafayette","Lafayette","IN",62231,40.4166667,-86.8752778
"us","lake station","Lake Station","IN",13667,41.575,-87.2388889
"us","lawrence","Lawrence","IN",41821,39.8386111,-86.0252778
"us","lebanon","Lebanon","IN",14583,40.0483333,-86.4691667
"us","logansport","Logansport","IN",19064,40.7544444,-86.3566667
"us","madison","Madison","IN",12435,38.7358333,-85.38
"us","marion","Marion","IN",30201,40.5583333,-85.6591667
"us","martinsville","Martinsville","IN",11617,39.4277778,-86.4283333
"us","merrillville","Merrillville","IN",31168,41.4827778,-87.3327778
"us","michigan city","Michigan City","IN",31903,41.7075,-86.895
"us","mishawaka","Mishawaka","IN",49055,41.6619444,-86.1586111
"us","mooresville","Mooresville","IN",11417,39.6127778,-86.3741667
"us","muncie","Muncie","IN",65327,40.1933333,-85.3863889
"us","munster","Munster","IN",22586,41.5644444,-87.5125
"us","new albany","New Albany","IN",36138,38.2855556,-85.8241667
"us","new castle","New Castle","IN",18812,39.9288889,-85.3702778
"us","new haven","New Haven","IN",13843,41.0705556,-85.0144444
"us","noblesville","Noblesville","IN",35840,40.0455556,-86.0086111
"us","north vernon","North Vernon","IN",6324,39.0061111,-85.6236111
"us","peru","Peru","IN",12841,40.7536111,-86.0688889
"us","plainfield","Plainfield","IN",23135,39.7041667,-86.3994444
"us","plymouth","Plymouth","IN",11024,41.3436111,-86.3097222
"us","portage","Portage","IN",35787,41.5758333,-87.1761111
"us","richmond","Richmond","IN",37631,39.8288889,-84.8902778
"us","saint john","Saint John","IN",10391,41.45,-87.47
"us","schererville","Schererville","IN",27157,41.4788889,-87.4547222
"us","seymour","Seymour","IN",18730,38.9591667,-85.8902778
"us","shelbyville","Shelbyville","IN",17815,39.5213889,-85.7769444
"us","south bend","South Bend","IN",103760,41.6833333,-86.25
"us","speedway","Speedway","IN",12642,39.8022222,-86.2672222
"us","terre haute","Terre Haute","IN",57063,39.4666667,-87.4138889
"us","valparaiso","Valparaiso","IN",28787,41.4730556,-87.0611111
"us","vincennes","Vincennes","IN",18257,38.6772222,-87.5286111
"us","wabash","Wabash","IN",11124,40.7977778,-85.8205556
"us","warsaw","Warsaw","IN",13003,41.2380556,-85.8530556
"us","washington","Washington","IN",11271,38.6591667,-87.1727778
"us","west lafayette","West Lafayette","IN",30950,40.4258333,-86.9080556
"us","westfield","Westfield","IN",12570,40.0427778,-86.1275
"us","zionsville","Zionsville","IN",11170,39.9508333,-86.2619444
"us","altoona","Altoona","IA",12115,41.6441667,-93.4644444
"us","ames","Ames","IA",56606,42.0347222,-93.6197222
"us","ankeny","Ankeny","IA",33916,41.7297222,-93.6055556
"us","bettendorf","Bettendorf","IA",31421,41.5244444,-90.5155556
"us","boone","Boone","IA",12802,42.0597222,-93.88
"us","burlington","Burlington","IA",25608,40.8075,-91.1127778
"us","carroll","Carroll","IA",9941,42.0658333,-94.8666667
"us","cedar falls","Cedar Falls","IA",36258,42.5277778,-92.4452778
"us","cedar rapids","Cedar Rapids","IA",122945,42.0083333,-91.6438889
"us","clinton","Clinton","IA",27294,41.8444444,-90.1886111
"us","clive","Clive","IA",14092,41.6030556,-93.7238889
"us","coralville","Coralville","IA",17645,41.6763889,-91.5802778
"us","council bluffs","Council Bluffs","IA",58764,41.2619444,-95.8608333
"us","davenport","Davenport","IA",96930,41.5236111,-90.5775
"us","des moines","Des Moines","IA",193180,41.6005556,-93.6088889
"us","dubuque","Dubuque","IA",57185,42.5005556,-90.6644444
"us","fairfield","Fairfield","IA",9442,41.0086111,-91.9625
"us","fort dodge","Fort Dodge","IA",26879,42.4975,-94.1677778
"us","fort madison","Fort Madison","IA",10733,40.6297222,-91.315
"us","grinnell","Grinnell","IA",9312,41.7430556,-92.7222222
"us","indianola","Indianola","IA",13353,41.3580556,-93.5572222
"us","iowa city","Iowa City","IA",64170,41.6611111,-91.53
"us","johnston","Johnston","IA",12547,41.6730556,-93.6975
"us","keokuk","Keokuk","IA",10645,40.3972222,-91.3847222
"us","le mars","Le Mars","IA",9256,42.7941667,-96.1652778
"us","ledyard","Ledyard","IA",15212,43.4216667,-94.1619444
"us","marion","Marion","IA",30785,42.0341667,-91.5975
"us","marshalltown","Marshalltown","IA",25554,42.0494444,-92.9077778
"us","mason city","Mason City","IA",27802,43.1536111,-93.2008333
"us","muscatine","Muscatine","IA",22529,41.4244444,-91.0430556
"us","newton","Newton","IA",16028,41.6997222,-93.0477778
"us","oskaloosa","Oskaloosa","IA",11104,41.2963889,-92.6441667
"us","ottumwa","Ottumwa","IA",24593,41.0041667,-92.3736111
"us","pella","Pella","IA",10058,41.4080556,-92.9161111
"us","sioux city","Sioux City","IA",83248,42.5,-96.4
"us","spencer","Spencer","IA",11203,43.1413889,-95.1441667
"us","storm lake","Storm Lake","IA",9835,42.6411111,-95.2094444
"us","urbandale","Urbandale","IA",33528,41.6266667,-93.7119444
"us","waterloo","Waterloo","IA",65836,42.4927778,-92.3427778
"us","waverly","Waverly","IA",9106,42.7258333,-92.4752778
"us","west des moines","West Des Moines","IA",55279,41.5772222,-93.7111111
"us","andover","Andover","KS",9201,37.7138889,-97.1361111
"us","arkansas city","Arkansas City","KS",11464,37.0619444,-97.0380556
"us","atchison","Atchison","KS",10068,39.5630556,-95.1213889
"us","chanute","Chanute","KS",8864,37.6791667,-95.4569444
"us","coffeyville","Coffeyville","KS",10150,37.0372222,-95.6161111
"us","derby","Derby","KS",19843,37.5455556,-97.2686111
"us","dodge city","Dodge City","KS",25932,37.7527778,-100.0166667
"us","el dorado","El Dorado","KS",12669,37.8172222,-96.8619444
"us","emporia","Emporia","KS",26545,38.4038889,-96.1813889
"us","garden city","Garden City","KS",26425,37.9716667,-100.8722222
"us","gardner","Gardner","KS",13511,38.8108333,-94.9269444
"us","great bend","Great Bend","KS",14654,38.3644444,-98.7644444
"us","hays","Hays","KS",19883,38.8791667,-99.3263889
"us","haysville","Haysville","KS",10012,37.5644444,-97.3519444
"us","hutchinson","Hutchinson","KS",40596,38.0608333,-97.9294444
"us","independence","Independence","KS",9129,37.2241667,-95.7080556
"us","junction city","Junction City","KS",17215,39.0286111,-96.8311111
"us","kansas city","Kansas City","KS",442028,39.1141667,-94.6272222
"us","lansing","Lansing","KS",10846,39.2486111,-94.9
"us","lawrence","Lawrence","KS",83314,38.9716667,-95.235
"us","leavenworth","Leavenworth","KS",34880,39.3111111,-94.9222222
"us","leawood","Leawood","KS",29978,38.9666667,-94.6166667
"us","lenexa","Lenexa","KS",43331,38.9536111,-94.7333333
"us","liberal","Liberal","KS",20182,37.0430556,-100.9205556
"us","manhattan","Manhattan","KS",45629,39.1836111,-96.5713889
"us","merriam","Merriam","KS",10759,39.0236111,-94.6933333
"us","mission","Mission","KS",9485,39.0277778,-94.6555556
"us","newton","Newton","KS",18113,38.0466667,-97.3447222
"us","olathe","Olathe","KS",113647,38.8813889,-94.8188889
"us","ottawa","Ottawa","KS",12118,38.6155556,-95.2675
"us","overland park","Overland Park","KS",166010,38.9822222,-94.6705556
"us","parsons","Parsons","KS",11227,37.3402778,-95.2608333
"us","pittsburg","Pittsburg","KS",19476,37.4108333,-94.7047222
"us","prairie village","Prairie Village","KS",21564,38.9916667,-94.6333333
"us","salina","Salina","KS",45723,38.8402778,-97.6111111
"us","shawnee","Shawnee","KS",57561,39.0416667,-94.72
"us","topeka","Topeka","KS",121570,39.0483333,-95.6777778
"us","wichita","Wichita","KS",355244,37.6922222,-97.3372222
"us","winfield","Winfield","KS",11754,37.2397222,-96.9952778
"us","ashland","Ashland","KY",21209,38.4783333,-82.6380556
"us","bardstown","Bardstown","KY",10576,37.8091667,-85.4669444
"us","berea","Berea","KY",12079,37.5686111,-84.2963889
"us","bowling green","Bowling Green","KY",51558,36.9902778,-86.4436111
"us","campbellsville","Campbellsville","KY",10821,37.3433333,-85.3419444
"us","covington","Covington","KY",42153,39.0836111,-84.5086111
"us","danville","Danville","KY",15164,37.6455556,-84.7722222
"us","edgewood","Edgewood","KY",9043,39.0186111,-84.5819444
"us","elizabethtown","Elizabethtown","KY",23636,37.6938889,-85.8591667
"us","erlanger","Erlanger","KY",16895,39.0166667,-84.6008333
"us","fern creek","Fern Creek","KY",18409,38.1597222,-85.5877778
"us","florence","Florence","KY",25487,38.9988889,-84.6266667
"us","fort thomas","Fort Thomas","KY",15654,39.075,-84.4472222
"us","frankfort","Frankfort","KY",27051,38.2008333,-84.8733333
"us","georgetown","Georgetown","KY",20347,38.2097222,-84.5588889
"us","glasgow","Glasgow","KY",13972,36.9958333,-85.9119444
"us","henderson","Henderson","KY",27495,37.8361111,-87.59
"us","highview","Highview","KY",15167,38.1427778,-85.6241667
"us","hopkinsville","Hopkinsville","KY",27656,36.8655556,-87.4886111
"us","independence","Independence","KY",18596,38.9430556,-84.5441667
"us","jeffersontown","Jeffersontown","KY",26464,38.1941667,-85.5644444
"us","lawrenceburg","Lawrenceburg","KY",9437,38.0372222,-84.8966667
"us","lexington-fayette","Lexington-Fayette","KY",272079,38.0497222,-84.4586111
